[
  {
    "city": "Andorra la Vella", 
    "lat": "42.5000", 
    "lng": "1.5000", 
    "country": "Andorra", 
    "iso2": "AD", 
    "admin_name": "Andorra la Vella", 
    "capital": "primary", 
    "population": "22151", 
    "population_proper": "22151"
  }, 
  {
    "city": "Santa Coloma", 
    "lat": "42.4939", 
    "lng": "1.4977", 
    "country": "Andorra", 
    "iso2": "AD", 
    "admin_name": "Andorra la Vella", 
    "capital": "", 
    "population": "3002", 
    "population_proper": "3002"
  }, 
  {
    "city": "Escaldes-Engordany", 
    "lat": "42.5085", 
    "lng": "1.5385", 
    "country": "Andorra", 
    "iso2": "AD", 
    "admin_name": "Escaldes-Engordany", 
    "capital": "admin", 
    "population": "", 
    "population_proper": ""
  }, 
  {
    "city": "Encamp", 
    "lat": "42.5167", 
    "lng": "1.5667", 
    "country": "Andorra", 
    "iso2": "AD", 
    "admin_name": "Encamp", 
    "capital": "admin", 
    "population": "", 
    "population_proper": ""
  }, 
  {
    "city": "La Massana", 
    "lat": "42.5434", 
    "lng": "1.5148", 
    "country": "Andorra", 
    "iso2": "AD", 
    "admin_name": "La Massana", 
    "capital": "admin", 
    "population": "", 
    "population_proper": ""
  }, 
  {
    "city": "Sant Julià de Lòria", 
    "lat": "42.4664", 
    "lng": "1.4933", 
    "country": "Andorra", 
    "iso2": "AD", 
    "admin_name": "Sant Julià de Lòria", 
    "capital": "admin", 
    "population": "", 
    "population_proper": ""
  }, 
  {
    "city": "Ordino", 
    "lat": "42.5550", 
    "lng": "1.5331", 
    "country": "Andorra", 
    "iso2": "AD", 
    "admin_name": "Ordino", 
    "capital": "admin", 
    "population": "", 
    "population_proper": ""
  }, 
  {
    "city": "Canillo", 
    "lat": "42.5670", 
    "lng": "1.5981", 
    "country": "Andorra", 
    "iso2": "AD", 
    "admin_name": "Canillo", 
    "capital": "admin", 
    "population": "", 
    "population_proper": ""
  }, 
  {
    "city": "La Comella", 
    "lat": "42.5012", 
    "lng": "1.5288", 
    "country": "Andorra", 
    "iso2": "AD", 
    "admin_name": "Andorra la Vella", 
    "capital": "", 
    "population": "", 
    "population_proper": ""
  }, 
  {
    "city": "Engordany", 
    "lat": "42.5116", 
    "lng": "1.5414", 
    "country": "Andorra", 
    "iso2": "AD", 
    "admin_name": "Escaldes-Engordany", 
    "capital": "", 
    "population": "", 
    "population_proper": ""
  }, 
  {
    "city": "Els Vilars", 
    "lat": "42.5164", 
    "lng": "1.5336", 
    "country": "Andorra", 
    "iso2": "AD", 
    "admin_name": "Escaldes-Engordany", 
    "capital": "", 
    "population": "", 
    "population_proper": ""
  }, 
  {
    "city": "La Plana", 
    "lat": "42.5047", 
    "lng": "1.5386", 
    "country": "Andorra", 
    "iso2": "AD", 
    "admin_name": "Escaldes-Engordany", 
    "capital": "", 
    "population": "", 
    "population_proper": ""
  }, 
  {
    "city": "Ràmio", 
    "lat": "42.4973", 
    "lng": "1.5740", 
    "country": "Andorra", 
    "iso2": "AD", 
    "admin_name": "Escaldes-Engordany", 
    "capital": "", 
    "population": "", 
    "population_proper": ""
  }, 
  {
    "city": "Engolasters", 
    "lat": "42.5111", 
    "lng": "1.5598", 
    "country": "Andorra", 
    "iso2": "AD", 
    "admin_name": "Escaldes-Engordany", 
    "capital": "", 
    "population": "", 
    "population_proper": ""
  }, 
  {
    "city": "Vila", 
    "lat": "42.5315", 
    "lng": "1.5698", 
    "country": "Andorra", 
    "iso2": "AD", 
    "admin_name": "Encamp", 
    "capital": "", 
    "population": "", 
    "population_proper": ""
  }, 
  {
    "city": "Les Bons", 
    "lat": "42.5333", 
    "lng": "1.5833", 
    "country": "Andorra", 
    "iso2": "AD", 
    "admin_name": "Encamp", 
    "capital": "", 
    "population": "", 
    "population_proper": ""
  }, 
  {
    "city": "El Tremat", 
    "lat": "42.5335", 
    "lng": "1.5806", 
    "country": "Andorra", 
    "iso2": "AD", 
    "admin_name": "Encamp", 
    "capital": "", 
    "population": "", 
    "population_proper": ""
  }, 
  {
    "city": "Xixerella", 
    "lat": "42.5500", 
    "lng": "1.4833", 
    "country": "Andorra", 
    "iso2": "AD", 
    "admin_name": "La Massana", 
    "capital": "", 
    "population": "", 
    "population_proper": ""
  }, 
  {
    "city": "Juberri", 
    "lat": "42.4400", 
    "lng": "1.5067", 
    "country": "Andorra", 
    "iso2": "AD", 
    "admin_name": "Sant Julià de Lòria", 
    "capital": "", 
    "population": "", 
    "population_proper": ""
  }, 
  {
    "city": "Llorts", 
    "lat": "42.5964", 
    "lng": "1.5266", 
    "country": "Andorra", 
    "iso2": "AD", 
    "admin_name": "Ordino", 
    "capital": "", 
    "population": "", 
    "population_proper": ""
  }, 
  {
    "city": "El Serrat", 
    "lat": "42.6181", 
    "lng": "1.5382", 
    "country": "Andorra", 
    "iso2": "AD", 
    "admin_name": "Ordino", 
    "capital": "", 
    "population": "", 
    "population_proper": ""
  }, 
  {
    "city": "Sispony", 
    "lat": "42.5332", 
    "lng": "1.5152", 
    "country": "Andorra", 
    "iso2": "AD", 
    "admin_name": "La Massana", 
    "capital": "", 
    "population": "", 
    "population_proper": ""
  }, 
  {
    "city": "Escàs", 
    "lat": "42.5464", 
    "lng": "1.5090", 
    "country": "Andorra", 
    "iso2": "AD", 
    "admin_name": "La Massana", 
    "capital": "", 
    "population": "", 
    "population_proper": ""
  }, 
  {
    "city": "Puiol del Piu", 
    "lat": "42.5667", 
    "lng": "1.5000", 
    "country": "Andorra", 
    "iso2": "AD", 
    "admin_name": "La Massana", 
    "capital": "", 
    "population": "", 
    "population_proper": ""
  }, 
  {
    "city": "Arinsal", 
    "lat": "42.5723", 
    "lng": "1.4838", 
    "country": "Andorra", 
    "iso2": "AD", 
    "admin_name": "La Massana", 
    "capital": "", 
    "population": "", 
    "population_proper": ""
  }, 
  {
    "city": "El Pui", 
    "lat": "42.5473", 
    "lng": "1.5144", 
    "country": "Andorra", 
    "iso2": "AD", 
    "admin_name": "La Massana", 
    "capital": "", 
    "population": "", 
    "population_proper": ""
  }, 
  {
    "city": "L’Aldosa", 
    "lat": "42.5430", 
    "lng": "1.5237", 
    "country": "Andorra", 
    "iso2": "AD", 
    "admin_name": "La Massana", 
    "capital": "", 
    "population": "", 
    "population_proper": ""
  }, 
  {
    "city": "Pal", 
    "lat": "42.5454", 
    "lng": "1.4747", 
    "country": "Andorra", 
    "iso2": "AD", 
    "admin_name": "La Massana", 
    "capital": "", 
    "population": "", 
    "population_proper": ""
  }, 
  {
    "city": "Erts", 
    "lat": "42.5611", 
    "lng": "1.4960", 
    "country": "Andorra", 
    "iso2": "AD", 
    "admin_name": "La Massana", 
    "capital": "", 
    "population": "", 
    "population_proper": ""
  }, 
  {
    "city": "Mas de Ribafeta", 
    "lat": "42.5693", 
    "lng": "1.4886", 
    "country": "Andorra", 
    "iso2": "AD", 
    "admin_name": "La Massana", 
    "capital": "", 
    "population": "", 
    "population_proper": ""
  }, 
  {
    "city": "Anyós", 
    "lat": "42.5341", 
    "lng": "1.5243", 
    "country": "Andorra", 
    "iso2": "AD", 
    "admin_name": "La Massana", 
    "capital": "", 
    "population": "", 
    "population_proper": ""
  }
]