[
  {
    "city": "Tirana", 
    "lat": "41.3300", 
    "lng": "19.8200", 
    "country": "Albania", 
    "iso2": "AL", 
    "admin_name": "Tiranë", 
    "capital": "primary", 
    "population": "418495", 
    "population_proper": "418495"
  }, 
  {
    "city": "Durrës", 
    "lat": "41.3167", 
    "lng": "19.4500", 
    "country": "Albania", 
    "iso2": "AL", 
    "admin_name": "Durrës", 
    "capital": "admin", 
    "population": "142432", 
    "population_proper": "122034"
  }, 
  {
    "city": "Vlorë", 
    "lat": "40.4500", 
    "lng": "19.4833", 
    "country": "Albania", 
    "iso2": "AL", 
    "admin_name": "Vlorë", 
    "capital": "admin", 
    "population": "130827", 
    "population_proper": "130827"
  }, 
  {
    "city": "Kamëz", 
    "lat": "41.3833", 
    "lng": "19.7667", 
    "country": "Albania", 
    "iso2": "AL", 
    "admin_name": "Tiranë", 
    "capital": "", 
    "population": "126777", 
    "population_proper": "126777"
  }, 
  {
    "city": "Fier", 
    "lat": "40.7167", 
    "lng": "19.5500", 
    "country": "Albania", 
    "iso2": "AL", 
    "admin_name": "Fier", 
    "capital": "admin", 
    "population": "120655", 
    "population_proper": "120655"
  }, 
  {
    "city": "Shkodër", 
    "lat": "42.0667", 
    "lng": "19.5000", 
    "country": "Albania", 
    "iso2": "AL", 
    "admin_name": "Shkodër", 
    "capital": "admin", 
    "population": "112276", 
    "population_proper": "112276"
  }, 
  {
    "city": "Elbasan", 
    "lat": "41.1125", 
    "lng": "20.0822", 
    "country": "Albania", 
    "iso2": "AL", 
    "admin_name": "Elbasan", 
    "capital": "admin", 
    "population": "78703", 
    "population_proper": "78703"
  }, 
  {
    "city": "Korçë", 
    "lat": "40.6167", 
    "lng": "20.7667", 
    "country": "Albania", 
    "iso2": "AL", 
    "admin_name": "Korçë", 
    "capital": "admin", 
    "population": "51152", 
    "population_proper": "51152"
  }, 
  {
    "city": "Sarandë", 
    "lat": "39.8833", 
    "lng": "20.0167", 
    "country": "Albania", 
    "iso2": "AL", 
    "admin_name": "Vlorë", 
    "capital": "", 
    "population": "41000", 
    "population_proper": "41000"
  }, 
  {
    "city": "Berat", 
    "lat": "40.7049", 
    "lng": "19.9497", 
    "country": "Albania", 
    "iso2": "AL", 
    "admin_name": "Berat", 
    "capital": "admin", 
    "population": "36496", 
    "population_proper": "36496"
  }, 
  {
    "city": "Lushnjë", 
    "lat": "40.9333", 
    "lng": "19.7000", 
    "country": "Albania", 
    "iso2": "AL", 
    "admin_name": "Fier", 
    "capital": "", 
    "population": "31105", 
    "population_proper": "31105"
  }, 
  {
    "city": "Kavajë", 
    "lat": "41.1833", 
    "lng": "19.5500", 
    "country": "Albania", 
    "iso2": "AL", 
    "admin_name": "Tiranë", 
    "capital": "", 
    "population": "29354", 
    "population_proper": "29354"
  }, 
  {
    "city": "Gjirokastër", 
    "lat": "40.0758", 
    "lng": "20.1389", 
    "country": "Albania", 
    "iso2": "AL", 
    "admin_name": "Gjirokastër", 
    "capital": "admin", 
    "population": "25301", 
    "population_proper": "25301"
  }, 
  {
    "city": "Pogradec", 
    "lat": "40.9000", 
    "lng": "20.6500", 
    "country": "Albania", 
    "iso2": "AL", 
    "admin_name": "Korçë", 
    "capital": "", 
    "population": "20848", 
    "population_proper": "20848"
  }, 
  {
    "city": "Fushë-Krujë", 
    "lat": "41.4833", 
    "lng": "19.7167", 
    "country": "Albania", 
    "iso2": "AL", 
    "admin_name": "Durrës", 
    "capital": "", 
    "population": "18477", 
    "population_proper": "18477"
  }, 
  {
    "city": "Laç", 
    "lat": "41.6353", 
    "lng": "19.7131", 
    "country": "Albania", 
    "iso2": "AL", 
    "admin_name": "Lezhë", 
    "capital": "", 
    "population": "17086", 
    "population_proper": "17086"
  }, 
  {
    "city": "Kukës", 
    "lat": "42.0758", 
    "lng": "20.4231", 
    "country": "Albania", 
    "iso2": "AL", 
    "admin_name": "Kukës", 
    "capital": "admin", 
    "population": "16719", 
    "population_proper": "16719"
  }, 
  {
    "city": "Sukth", 
    "lat": "41.3833", 
    "lng": "19.5333", 
    "country": "Albania", 
    "iso2": "AL", 
    "admin_name": "Durrës", 
    "capital": "", 
    "population": "15966", 
    "population_proper": "15966"
  }, 
  {
    "city": "Lezhë", 
    "lat": "41.7805", 
    "lng": "19.6434", 
    "country": "Albania", 
    "iso2": "AL", 
    "admin_name": "Lezhë", 
    "capital": "admin", 
    "population": "15510", 
    "population_proper": "15510"
  }, 
  {
    "city": "Patos", 
    "lat": "40.6841", 
    "lng": "19.6194", 
    "country": "Albania", 
    "iso2": "AL", 
    "admin_name": "Fier", 
    "capital": "", 
    "population": "15397", 
    "population_proper": "15397"
  }, 
  {
    "city": "Peshkopi", 
    "lat": "41.6831", 
    "lng": "20.4289", 
    "country": "Albania", 
    "iso2": "AL", 
    "admin_name": "Dibër", 
    "capital": "admin", 
    "population": "13251", 
    "population_proper": "13251"
  }, 
  {
    "city": "Librazhd-Qendër", 
    "lat": "41.1969", 
    "lng": "20.3356", 
    "country": "Albania", 
    "iso2": "AL", 
    "admin_name": "Elbasan", 
    "capital": "", 
    "population": "12691", 
    "population_proper": "12691"
  }, 
  {
    "city": "Kuçovë", 
    "lat": "40.8039", 
    "lng": "19.9144", 
    "country": "Albania", 
    "iso2": "AL", 
    "admin_name": "Berat", 
    "capital": "", 
    "population": "12654", 
    "population_proper": "12654"
  }, 
  {
    "city": "Krujë", 
    "lat": "41.5178", 
    "lng": "19.7978", 
    "country": "Albania", 
    "iso2": "AL", 
    "admin_name": "Durrës", 
    "capital": "", 
    "population": "11721", 
    "population_proper": "11721"
  }, 
  {
    "city": "Vorë", 
    "lat": "41.3939", 
    "lng": "19.6544", 
    "country": "Albania", 
    "iso2": "AL", 
    "admin_name": "Tiranë", 
    "capital": "", 
    "population": "10901", 
    "population_proper": "10901"
  }, 
  {
    "city": "Burrel", 
    "lat": "41.6000", 
    "lng": "20.0000", 
    "country": "Albania", 
    "iso2": "AL", 
    "admin_name": "Dibër", 
    "capital": "", 
    "population": "10862", 
    "population_proper": "10862"
  }, 
  {
    "city": "Libonik", 
    "lat": "40.7500", 
    "lng": "20.7167", 
    "country": "Albania", 
    "iso2": "AL", 
    "admin_name": "Korçë", 
    "capital": "", 
    "population": "8922", 
    "population_proper": "8922"
  }, 
  {
    "city": "Rrëshen", 
    "lat": "41.7667", 
    "lng": "19.8833", 
    "country": "Albania", 
    "iso2": "AL", 
    "admin_name": "Lezhë", 
    "capital": "", 
    "population": "8803", 
    "population_proper": "8803"
  }, 
  {
    "city": "Belsh", 
    "lat": "40.9833", 
    "lng": "19.8833", 
    "country": "Albania", 
    "iso2": "AL", 
    "admin_name": "Elbasan", 
    "capital": "", 
    "population": "8781", 
    "population_proper": "8781"
  }, 
  {
    "city": "Divjakë", 
    "lat": "40.9964", 
    "lng": "19.5327", 
    "country": "Albania", 
    "iso2": "AL", 
    "admin_name": "Fier", 
    "capital": "", 
    "population": "8445", 
    "population_proper": "8445"
  }, 
  {
    "city": "Gramsh", 
    "lat": "40.8667", 
    "lng": "20.1833", 
    "country": "Albania", 
    "iso2": "AL", 
    "admin_name": "Elbasan", 
    "capital": "", 
    "population": "8440", 
    "population_proper": "8440"
  }, 
  {
    "city": "Mamurras", 
    "lat": "41.5775", 
    "lng": "19.6922", 
    "country": "Albania", 
    "iso2": "AL", 
    "admin_name": "Lezhë", 
    "capital": "", 
    "population": "8282", 
    "population_proper": "8282"
  }, 
  {
    "city": "Bulqizë", 
    "lat": "41.5000", 
    "lng": "20.2167", 
    "country": "Albania", 
    "iso2": "AL", 
    "admin_name": "Dibër", 
    "capital": "", 
    "population": "8177", 
    "population_proper": "8177"
  }, 
  {
    "city": "Vau i Dejës", 
    "lat": "42.0000", 
    "lng": "19.6333", 
    "country": "Albania", 
    "iso2": "AL", 
    "admin_name": "Shkodër", 
    "capital": "", 
    "population": "8117", 
    "population_proper": "8117"
  }, 
  {
    "city": "Shëngjin", 
    "lat": "41.8136", 
    "lng": "19.5939", 
    "country": "Albania", 
    "iso2": "AL", 
    "admin_name": "Lezhë", 
    "capital": "", 
    "population": "8091", 
    "population_proper": "8091"
  }, 
  {
    "city": "Ballsh", 
    "lat": "40.5991", 
    "lng": "19.7359", 
    "country": "Albania", 
    "iso2": "AL", 
    "admin_name": "Fier", 
    "capital": "", 
    "population": "7657", 
    "population_proper": "7657"
  }, 
  {
    "city": "Shijak", 
    "lat": "41.3456", 
    "lng": "19.5672", 
    "country": "Albania", 
    "iso2": "AL", 
    "admin_name": "Durrës", 
    "capital": "", 
    "population": "7568", 
    "population_proper": "7568"
  }, 
  {
    "city": "Bilisht", 
    "lat": "40.6275", 
    "lng": "20.9900", 
    "country": "Albania", 
    "iso2": "AL", 
    "admin_name": "Korçë", 
    "capital": "", 
    "population": "7114", 
    "population_proper": "7114"
  }, 
  {
    "city": "Rrogozhinë", 
    "lat": "41.0761", 
    "lng": "19.6667", 
    "country": "Albania", 
    "iso2": "AL", 
    "admin_name": "Tiranë", 
    "capital": "", 
    "population": "7049", 
    "population_proper": "7049"
  }, 
  {
    "city": "Librazhd", 
    "lat": "41.1833", 
    "lng": "20.3167", 
    "country": "Albania", 
    "iso2": "AL", 
    "admin_name": "Elbasan", 
    "capital": "", 
    "population": "6937", 
    "population_proper": "6937"
  }, 
  {
    "city": "Cërrik", 
    "lat": "41.0333", 
    "lng": "19.9833", 
    "country": "Albania", 
    "iso2": "AL", 
    "admin_name": "Elbasan", 
    "capital": "", 
    "population": "6695", 
    "population_proper": "6695"
  }, 
  {
    "city": "Roskovec", 
    "lat": "40.7375", 
    "lng": "19.7022", 
    "country": "Albania", 
    "iso2": "AL", 
    "admin_name": "Fier", 
    "capital": "", 
    "population": "6657", 
    "population_proper": "6657"
  }, 
  {
    "city": "Peqin", 
    "lat": "41.0500", 
    "lng": "19.7500", 
    "country": "Albania", 
    "iso2": "AL", 
    "admin_name": "Elbasan", 
    "capital": "", 
    "population": "6353", 
    "population_proper": "6353"
  }, 
  {
    "city": "Krumë", 
    "lat": "42.1961", 
    "lng": "20.4146", 
    "country": "Albania", 
    "iso2": "AL", 
    "admin_name": "Kukës", 
    "capital": "", 
    "population": "6006", 
    "population_proper": "6006"
  }, 
  {
    "city": "Përmet", 
    "lat": "40.2333", 
    "lng": "20.3500", 
    "country": "Albania", 
    "iso2": "AL", 
    "admin_name": "Gjirokastër", 
    "capital": "", 
    "population": "5945", 
    "population_proper": "5945"
  }, 
  {
    "city": "Prrenjas", 
    "lat": "41.0667", 
    "lng": "20.5500", 
    "country": "Albania", 
    "iso2": "AL", 
    "admin_name": "Elbasan", 
    "capital": "", 
    "population": "5847", 
    "population_proper": "5847"
  }, 
  {
    "city": "Delvinë", 
    "lat": "39.9494", 
    "lng": "20.0958", 
    "country": "Albania", 
    "iso2": "AL", 
    "admin_name": "Vlorë", 
    "capital": "", 
    "population": "5754", 
    "population_proper": "5754"
  }, 
  {
    "city": "Bajram Curri", 
    "lat": "42.3582", 
    "lng": "20.0760", 
    "country": "Albania", 
    "iso2": "AL", 
    "admin_name": "Kukës", 
    "capital": "", 
    "population": "5340", 
    "population_proper": "5340"
  }, 
  {
    "city": "Ura Vajgurore", 
    "lat": "40.7689", 
    "lng": "19.8778", 
    "country": "Albania", 
    "iso2": "AL", 
    "admin_name": "Berat", 
    "capital": "", 
    "population": "4893", 
    "population_proper": "4893"
  }, 
  {
    "city": "Rubik", 
    "lat": "41.7667", 
    "lng": "19.7833", 
    "country": "Albania", 
    "iso2": "AL", 
    "admin_name": "Lezhë", 
    "capital": "", 
    "population": "4454", 
    "population_proper": "4454"
  }, 
  {
    "city": "Tepelenë", 
    "lat": "40.3000", 
    "lng": "20.0167", 
    "country": "Albania", 
    "iso2": "AL", 
    "admin_name": "Gjirokastër", 
    "capital": "", 
    "population": "4342", 
    "population_proper": "4342"
  }, 
  {
    "city": "Poliçan", 
    "lat": "40.6122", 
    "lng": "20.0981", 
    "country": "Albania", 
    "iso2": "AL", 
    "admin_name": "Berat", 
    "capital": "", 
    "population": "4318", 
    "population_proper": "4318"
  }, 
  {
    "city": "Maliq", 
    "lat": "40.7083", 
    "lng": "20.7000", 
    "country": "Albania", 
    "iso2": "AL", 
    "admin_name": "Korçë", 
    "capital": "", 
    "population": "4290", 
    "population_proper": "4290"
  }, 
  {
    "city": "Çorovodë", 
    "lat": "40.5042", 
    "lng": "20.2272", 
    "country": "Albania", 
    "iso2": "AL", 
    "admin_name": "Berat", 
    "capital": "", 
    "population": "4051", 
    "population_proper": "4051"
  }, 
  {
    "city": "Ersekë", 
    "lat": "40.3333", 
    "lng": "20.6833", 
    "country": "Albania", 
    "iso2": "AL", 
    "admin_name": "Korçë", 
    "capital": "", 
    "population": "3746", 
    "population_proper": "3746"
  }, 
  {
    "city": "Koplik", 
    "lat": "42.2136", 
    "lng": "19.4364", 
    "country": "Albania", 
    "iso2": "AL", 
    "admin_name": "Shkodër", 
    "capital": "", 
    "population": "3734", 
    "population_proper": "3734"
  }, 
  {
    "city": "Pukë", 
    "lat": "42.0500", 
    "lng": "19.9000", 
    "country": "Albania", 
    "iso2": "AL", 
    "admin_name": "Shkodër", 
    "capital": "", 
    "population": "3607", 
    "population_proper": "3607"
  }, 
  {
    "city": "Lazarat", 
    "lat": "40.0500", 
    "lng": "20.1500", 
    "country": "Albania", 
    "iso2": "AL", 
    "admin_name": "Gjirokastër", 
    "capital": "", 
    "population": "3160", 
    "population_proper": "3160"
  }, 
  {
    "city": "Memaliaj", 
    "lat": "40.3500", 
    "lng": "19.9833", 
    "country": "Albania", 
    "iso2": "AL", 
    "admin_name": "Gjirokastër", 
    "capital": "", 
    "population": "2646", 
    "population_proper": "2646"
  }
]