[
  {
    "city": "Bridgetown", 
    "lat": "13.0975", 
    "lng": "-59.6167", 
    "country": "Barbados", 
    "iso2": "BB", 
    "admin_name": "Saint Michael", 
    "capital": "primary", 
    "population": "110000", 
    "population_proper": "110000"
  }, 
  {
    "city": "Speightstown", 
    "lat": "13.2544", 
    "lng": "-59.6408", 
    "country": "Barbados", 
    "iso2": "BB", 
    "admin_name": "Saint Peter", 
    "capital": "", 
    "population": "2192", 
    "population_proper": "2192"
  }, 
  {
    "city": "Holetown", 
    "lat": "13.1867", 
    "lng": "-59.6381", 
    "country": "Barbados", 
    "iso2": "BB", 
    "admin_name": "Saint James", 
    "capital": "", 
    "population": "1595", 
    "population_proper": "1595"
  }, 
  {
    "city": "Bathsheba", 
    "lat": "13.2142", 
    "lng": "-59.5236", 
    "country": "Barbados", 
    "iso2": "BB", 
    "admin_name": "Saint Joseph", 
    "capital": "", 
    "population": "1521", 
    "population_proper": "1521"
  }, 
  {
    "city": "Oistins", 
    "lat": "13.0667", 
    "lng": "-59.5333", 
    "country": "Barbados", 
    "iso2": "BB", 
    "admin_name": "Christ Church", 
    "capital": "", 
    "population": "1471", 
    "population_proper": "1471"
  }, 
  {
    "city": "Neils", 
    "lat": "13.1217", 
    "lng": "-59.5785", 
    "country": "Barbados", 
    "iso2": "BB", 
    "admin_name": "Saint Michael", 
    "capital": "", 
    "population": "", 
    "population_proper": ""
  }, 
  {
    "city": "Pine Housing Estate", 
    "lat": "13.1000", 
    "lng": "-59.6000", 
    "country": "Barbados", 
    "iso2": "BB", 
    "admin_name": "Saint Michael", 
    "capital": "", 
    "population": "", 
    "population_proper": ""
  }, 
  {
    "city": "Black Rock", 
    "lat": "13.1258", 
    "lng": "-59.6262", 
    "country": "Barbados", 
    "iso2": "BB", 
    "admin_name": "Saint Michael", 
    "capital": "", 
    "population": "", 
    "population_proper": ""
  }, 
  {
    "city": "Hothersal Turning", 
    "lat": "13.1319", 
    "lng": "-59.5903", 
    "country": "Barbados", 
    "iso2": "BB", 
    "admin_name": "Saint Michael", 
    "capital": "", 
    "population": "", 
    "population_proper": ""
  }, 
  {
    "city": "Friendship Terrace", 
    "lat": "13.1383", 
    "lng": "-59.6045", 
    "country": "Barbados", 
    "iso2": "BB", 
    "admin_name": "Saint Michael", 
    "capital": "", 
    "population": "", 
    "population_proper": ""
  }, 
  {
    "city": "Green Hill", 
    "lat": "13.1365", 
    "lng": "-59.6035", 
    "country": "Barbados", 
    "iso2": "BB", 
    "admin_name": "Saint Michael", 
    "capital": "", 
    "population": "", 
    "population_proper": ""
  }, 
  {
    "city": "Waterford", 
    "lat": "13.1140", 
    "lng": "-59.6003", 
    "country": "Barbados", 
    "iso2": "BB", 
    "admin_name": "Saint Michael", 
    "capital": "", 
    "population": "", 
    "population_proper": ""
  }, 
  {
    "city": "Haggatt Hall", 
    "lat": "13.1099", 
    "lng": "-59.5765", 
    "country": "Barbados", 
    "iso2": "BB", 
    "admin_name": "Saint Michael", 
    "capital": "", 
    "population": "", 
    "population_proper": ""
  }, 
  {
    "city": "Belle", 
    "lat": "13.1164", 
    "lng": "-59.5884", 
    "country": "Barbados", 
    "iso2": "BB", 
    "admin_name": "Saint Michael", 
    "capital": "", 
    "population": "", 
    "population_proper": ""
  }, 
  {
    "city": "Jackmans", 
    "lat": "13.1362", 
    "lng": "-59.5925", 
    "country": "Barbados", 
    "iso2": "BB", 
    "admin_name": "Saint Michael", 
    "capital": "", 
    "population": "", 
    "population_proper": ""
  }, 
  {
    "city": "Rouen", 
    "lat": "13.1132", 
    "lng": "-59.5800", 
    "country": "Barbados", 
    "iso2": "BB", 
    "admin_name": "Saint Michael", 
    "capital": "", 
    "population": "", 
    "population_proper": ""
  }, 
  {
    "city": "Rock Dundo", 
    "lat": "13.1324", 
    "lng": "-59.6116", 
    "country": "Barbados", 
    "iso2": "BB", 
    "admin_name": "Saint Michael", 
    "capital": "", 
    "population": "", 
    "population_proper": ""
  }, 
  {
    "city": "Cane Wood", 
    "lat": "13.1459", 
    "lng": "-59.5950", 
    "country": "Barbados", 
    "iso2": "BB", 
    "admin_name": "Saint Michael", 
    "capital": "", 
    "population": "", 
    "population_proper": ""
  }, 
  {
    "city": "Jackson", 
    "lat": "13.1462", 
    "lng": "-59.6025", 
    "country": "Barbados", 
    "iso2": "BB", 
    "admin_name": "Saint Michael", 
    "capital": "", 
    "population": "", 
    "population_proper": ""
  }, 
  {
    "city": "Wanstead", 
    "lat": "13.1397", 
    "lng": "-59.6300", 
    "country": "Barbados", 
    "iso2": "BB", 
    "admin_name": "Saint James", 
    "capital": "", 
    "population": "", 
    "population_proper": ""
  }, 
  {
    "city": "Kent", 
    "lat": "13.0941", 
    "lng": "-59.5681", 
    "country": "Barbados", 
    "iso2": "BB", 
    "admin_name": "Christ Church", 
    "capital": "", 
    "population": "", 
    "population_proper": ""
  }, 
  {
    "city": "Dayrells", 
    "lat": "13.1411", 
    "lng": "-59.5821", 
    "country": "Barbados", 
    "iso2": "BB", 
    "admin_name": "Saint Michael", 
    "capital": "", 
    "population": "", 
    "population_proper": ""
  }, 
  {
    "city": "Lower Birneys", 
    "lat": "13.1042", 
    "lng": "-59.5720", 
    "country": "Barbados", 
    "iso2": "BB", 
    "admin_name": "Saint George", 
    "capital": "", 
    "population": "", 
    "population_proper": ""
  }, 
  {
    "city": "Mapp Hill", 
    "lat": "13.1065", 
    "lng": "-59.5736", 
    "country": "Barbados", 
    "iso2": "BB", 
    "admin_name": "Saint Michael", 
    "capital": "", 
    "population": "", 
    "population_proper": ""
  }, 
  {
    "city": "Bibbys Lane", 
    "lat": "13.1523", 
    "lng": "-59.5882", 
    "country": "Barbados", 
    "iso2": "BB", 
    "admin_name": "Saint Michael", 
    "capital": "", 
    "population": "", 
    "population_proper": ""
  }, 
  {
    "city": "Applewhaites Tenantry", 
    "lat": "13.1551", 
    "lng": "-59.5847", 
    "country": "Barbados", 
    "iso2": "BB", 
    "admin_name": "Saint Thomas", 
    "capital": "", 
    "population": "", 
    "population_proper": ""
  }, 
  {
    "city": "Lazaretto", 
    "lat": "13.1389", 
    "lng": "-59.6363", 
    "country": "Barbados", 
    "iso2": "BB", 
    "admin_name": "Saint James", 
    "capital": "", 
    "population": "", 
    "population_proper": ""
  }, 
  {
    "city": "Warrens", 
    "lat": "13.1500", 
    "lng": "-59.6000", 
    "country": "Barbados", 
    "iso2": "BB", 
    "admin_name": "Saint Thomas", 
    "capital": "", 
    "population": "", 
    "population_proper": ""
  }, 
  {
    "city": "Clermont", 
    "lat": "13.1439", 
    "lng": "-59.6147", 
    "country": "Barbados", 
    "iso2": "BB", 
    "admin_name": "Saint Michael", 
    "capital": "", 
    "population": "", 
    "population_proper": ""
  }, 
  {
    "city": "Bournes", 
    "lat": "13.1457", 
    "lng": "-59.5793", 
    "country": "Barbados", 
    "iso2": "BB", 
    "admin_name": "Saint Michael", 
    "capital": "", 
    "population": "", 
    "population_proper": ""
  }, 
  {
    "city": "Lears", 
    "lat": "13.1500", 
    "lng": "-59.5833", 
    "country": "Barbados", 
    "iso2": "BB", 
    "admin_name": "Saint Thomas", 
    "capital": "", 
    "population": "", 
    "population_proper": ""
  }, 
  {
    "city": "Lancaster", 
    "lat": "13.2035", 
    "lng": "-59.6188", 
    "country": "Barbados", 
    "iso2": "BB", 
    "admin_name": "Saint James", 
    "capital": "", 
    "population": "", 
    "population_proper": ""
  }, 
  {
    "city": "Porters", 
    "lat": "13.2001", 
    "lng": "-59.6393", 
    "country": "Barbados", 
    "iso2": "BB", 
    "admin_name": "Saint James", 
    "capital": "", 
    "population": "", 
    "population_proper": ""
  }, 
  {
    "city": "Upper Carlton", 
    "lat": "13.2211", 
    "lng": "-59.6257", 
    "country": "Barbados", 
    "iso2": "BB", 
    "admin_name": "Saint James", 
    "capital": "", 
    "population": "", 
    "population_proper": ""
  }, 
  {
    "city": "Oxnards", 
    "lat": "13.1520", 
    "lng": "-59.6312", 
    "country": "Barbados", 
    "iso2": "BB", 
    "admin_name": "Saint James", 
    "capital": "", 
    "population": "", 
    "population_proper": ""
  }, 
  {
    "city": "Appleby", 
    "lat": "13.1544", 
    "lng": "-59.6357", 
    "country": "Barbados", 
    "iso2": "BB", 
    "admin_name": "Saint James", 
    "capital": "", 
    "population": "", 
    "population_proper": ""
  }, 
  {
    "city": "Prior Park", 
    "lat": "13.1531", 
    "lng": "-59.6183", 
    "country": "Barbados", 
    "iso2": "BB", 
    "admin_name": "Saint James", 
    "capital": "", 
    "population": "", 
    "population_proper": ""
  }, 
  {
    "city": "Carlton", 
    "lat": "13.2167", 
    "lng": "-59.6333", 
    "country": "Barbados", 
    "iso2": "BB", 
    "admin_name": "Saint James", 
    "capital": "", 
    "population": "", 
    "population_proper": ""
  }, 
  {
    "city": "Sandy Lane", 
    "lat": "13.1732", 
    "lng": "-59.6356", 
    "country": "Barbados", 
    "iso2": "BB", 
    "admin_name": "Saint James", 
    "capital": "", 
    "population": "", 
    "population_proper": ""
  }, 
  {
    "city": "Thorpes", 
    "lat": "13.1571", 
    "lng": "-59.6266", 
    "country": "Barbados", 
    "iso2": "BB", 
    "admin_name": "Saint James", 
    "capital": "", 
    "population": "", 
    "population_proper": ""
  }, 
  {
    "city": "Greenwich", 
    "lat": "13.1982", 
    "lng": "-59.6218", 
    "country": "Barbados", 
    "iso2": "BB", 
    "admin_name": "Saint James", 
    "capital": "", 
    "population": "", 
    "population_proper": ""
  }, 
  {
    "city": "Fitts", 
    "lat": "13.1511", 
    "lng": "-59.6357", 
    "country": "Barbados", 
    "iso2": "BB", 
    "admin_name": "Saint James", 
    "capital": "", 
    "population": "", 
    "population_proper": ""
  }, 
  {
    "city": "Trents", 
    "lat": "13.1915", 
    "lng": "-59.6319", 
    "country": "Barbados", 
    "iso2": "BB", 
    "admin_name": "Saint James", 
    "capital": "", 
    "population": "", 
    "population_proper": ""
  }, 
  {
    "city": "Hoytes", 
    "lat": "13.1639", 
    "lng": "-59.6212", 
    "country": "Barbados", 
    "iso2": "BB", 
    "admin_name": "Saint James", 
    "capital": "", 
    "population": "", 
    "population_proper": ""
  }, 
  {
    "city": "Blowers", 
    "lat": "13.2000", 
    "lng": "-59.6167", 
    "country": "Barbados", 
    "iso2": "BB", 
    "admin_name": "Saint Thomas", 
    "capital": "", 
    "population": "", 
    "population_proper": ""
  }, 
  {
    "city": "Prospect", 
    "lat": "13.1468", 
    "lng": "-59.6372", 
    "country": "Barbados", 
    "iso2": "BB", 
    "admin_name": "Saint James", 
    "capital": "", 
    "population": "", 
    "population_proper": ""
  }, 
  {
    "city": "Haynesville", 
    "lat": "13.1551", 
    "lng": "-59.6283", 
    "country": "Barbados", 
    "iso2": "BB", 
    "admin_name": "Saint James", 
    "capital": "", 
    "population": "", 
    "population_proper": ""
  }, 
  {
    "city": "Weston", 
    "lat": "13.2190", 
    "lng": "-59.6391", 
    "country": "Barbados", 
    "iso2": "BB", 
    "admin_name": "Saint James", 
    "capital": "", 
    "population": "", 
    "population_proper": ""
  }, 
  {
    "city": "Deanes", 
    "lat": "13.2106", 
    "lng": "-59.6139", 
    "country": "Barbados", 
    "iso2": "BB", 
    "admin_name": "Saint James", 
    "capital": "", 
    "population": "", 
    "population_proper": ""
  }, 
  {
    "city": "Halls", 
    "lat": "13.1533", 
    "lng": "-59.6230", 
    "country": "Barbados", 
    "iso2": "BB", 
    "admin_name": "Saint James", 
    "capital": "", 
    "population": "", 
    "population_proper": ""
  }, 
  {
    "city": "Folkestone Park", 
    "lat": "13.1917", 
    "lng": "-59.6376", 
    "country": "Barbados", 
    "iso2": "BB", 
    "admin_name": "Saint James", 
    "capital": "", 
    "population": "", 
    "population_proper": ""
  }, 
  {
    "city": "Westmoreland", 
    "lat": "13.2196", 
    "lng": "-59.6207", 
    "country": "Barbados", 
    "iso2": "BB", 
    "admin_name": "Saint James", 
    "capital": "", 
    "population": "", 
    "population_proper": ""
  }, 
  {
    "city": "Mount Standfast", 
    "lat": "13.2046", 
    "lng": "-59.6341", 
    "country": "Barbados", 
    "iso2": "BB", 
    "admin_name": "Saint James", 
    "capital": "", 
    "population": "", 
    "population_proper": ""
  }, 
  {
    "city": "The Garden", 
    "lat": "13.2096", 
    "lng": "-59.6385", 
    "country": "Barbados", 
    "iso2": "BB", 
    "admin_name": "Saint James", 
    "capital": "", 
    "population": "", 
    "population_proper": ""
  }, 
  {
    "city": "Durants", 
    "lat": "13.1592", 
    "lng": "-59.6313", 
    "country": "Barbados", 
    "iso2": "BB", 
    "admin_name": "Saint James", 
    "capital": "", 
    "population": "", 
    "population_proper": ""
  }, 
  {
    "city": "Husbands", 
    "lat": "13.1489", 
    "lng": "-59.6288", 
    "country": "Barbados", 
    "iso2": "BB", 
    "admin_name": "Saint James", 
    "capital": "", 
    "population": "", 
    "population_proper": ""
  }, 
  {
    "city": "Holders Hill", 
    "lat": "13.1645", 
    "lng": "-59.6320", 
    "country": "Barbados", 
    "iso2": "BB", 
    "admin_name": "Saint James", 
    "capital": "", 
    "population": "", 
    "population_proper": ""
  }, 
  {
    "city": "Lower Carlton", 
    "lat": "13.2214", 
    "lng": "-59.6400", 
    "country": "Barbados", 
    "iso2": "BB", 
    "admin_name": "Saint James", 
    "capital": "", 
    "population": "", 
    "population_proper": ""
  }, 
  {
    "city": "Orange Hill", 
    "lat": "13.2093", 
    "lng": "-59.6060", 
    "country": "Barbados", 
    "iso2": "BB", 
    "admin_name": "Saint James", 
    "capital": "", 
    "population": "", 
    "population_proper": ""
  }, 
  {
    "city": "Seaview", 
    "lat": "13.1852", 
    "lng": "-59.6197", 
    "country": "Barbados", 
    "iso2": "BB", 
    "admin_name": "Saint James", 
    "capital": "", 
    "population": "", 
    "population_proper": ""
  }, 
  {
    "city": "Green Garden", 
    "lat": "13.0471", 
    "lng": "-59.5206", 
    "country": "Barbados", 
    "iso2": "BB", 
    "admin_name": "Christ Church", 
    "capital": "", 
    "population": "", 
    "population_proper": ""
  }, 
  {
    "city": "Searles Tenantry", 
    "lat": "13.0901", 
    "lng": "-59.5172", 
    "country": "Barbados", 
    "iso2": "BB", 
    "admin_name": "Christ Church", 
    "capital": "", 
    "population": "", 
    "population_proper": ""
  }, 
  {
    "city": "Balls", 
    "lat": "13.0804", 
    "lng": "-59.5262", 
    "country": "Barbados", 
    "iso2": "BB", 
    "admin_name": "Christ Church", 
    "capital": "", 
    "population": "", 
    "population_proper": ""
  }, 
  {
    "city": "Ealing Grove", 
    "lat": "13.0596", 
    "lng": "-59.5146", 
    "country": "Barbados", 
    "iso2": "BB", 
    "admin_name": "Christ Church", 
    "capital": "", 
    "population": "", 
    "population_proper": ""
  }, 
  {
    "city": "Fairview", 
    "lat": "13.0968", 
    "lng": "-59.5029", 
    "country": "Barbados", 
    "iso2": "BB", 
    "admin_name": "Christ Church", 
    "capital": "", 
    "population": "", 
    "population_proper": ""
  }, 
  {
    "city": "Bannatyne", 
    "lat": "13.0886", 
    "lng": "-59.5447", 
    "country": "Barbados", 
    "iso2": "BB", 
    "admin_name": "Christ Church", 
    "capital": "", 
    "population": "", 
    "population_proper": ""
  }, 
  {
    "city": "Pilgrim Place", 
    "lat": "13.0776", 
    "lng": "-59.5144", 
    "country": "Barbados", 
    "iso2": "BB", 
    "admin_name": "Christ Church", 
    "capital": "", 
    "population": "", 
    "population_proper": ""
  }, 
  {
    "city": "Providence", 
    "lat": "13.0761", 
    "lng": "-59.5210", 
    "country": "Barbados", 
    "iso2": "BB", 
    "admin_name": "Christ Church", 
    "capital": "", 
    "population": "", 
    "population_proper": ""
  }, 
  {
    "city": "Parish Land", 
    "lat": "13.0734", 
    "lng": "-59.5181", 
    "country": "Barbados", 
    "iso2": "BB", 
    "admin_name": "Christ Church", 
    "capital": "", 
    "population": "", 
    "population_proper": ""
  }, 
  {
    "city": "Fairy Valley", 
    "lat": "13.0791", 
    "lng": "-59.5057", 
    "country": "Barbados", 
    "iso2": "BB", 
    "admin_name": "Christ Church", 
    "capital": "", 
    "population": "", 
    "population_proper": ""
  }, 
  {
    "city": "Hopewell", 
    "lat": "13.0577", 
    "lng": "-59.5184", 
    "country": "Barbados", 
    "iso2": "BB", 
    "admin_name": "Christ Church", 
    "capital": "", 
    "population": "", 
    "population_proper": ""
  }, 
  {
    "city": "Packers", 
    "lat": "13.1000", 
    "lng": "-59.5020", 
    "country": "Barbados", 
    "iso2": "BB", 
    "admin_name": "Christ Church", 
    "capital": "", 
    "population": "", 
    "population_proper": ""
  }, 
  {
    "city": "Below Rock", 
    "lat": "13.0585", 
    "lng": "-59.5305", 
    "country": "Barbados", 
    "iso2": "BB", 
    "admin_name": "Christ Church", 
    "capital": "", 
    "population": "", 
    "population_proper": ""
  }, 
  {
    "city": "Edey", 
    "lat": "13.0989", 
    "lng": "-59.5401", 
    "country": "Barbados", 
    "iso2": "BB", 
    "admin_name": "Christ Church", 
    "capital": "", 
    "population": "", 
    "population_proper": ""
  }, 
  {
    "city": "Inch Marlowe", 
    "lat": "13.0517", 
    "lng": "-59.5129", 
    "country": "Barbados", 
    "iso2": "BB", 
    "admin_name": "Christ Church", 
    "capital": "", 
    "population": "", 
    "population_proper": ""
  }, 
  {
    "city": "Ridge", 
    "lat": "13.1011", 
    "lng": "-59.5337", 
    "country": "Barbados", 
    "iso2": "BB", 
    "admin_name": "Christ Church", 
    "capital": "", 
    "population": "", 
    "population_proper": ""
  }, 
  {
    "city": "Round Rock", 
    "lat": "13.0506", 
    "lng": "-59.5122", 
    "country": "Barbados", 
    "iso2": "BB", 
    "admin_name": "Christ Church", 
    "capital": "", 
    "population": "", 
    "population_proper": ""
  }, 
  {
    "city": "Lowland", 
    "lat": "13.0877", 
    "lng": "-59.5218", 
    "country": "Barbados", 
    "iso2": "BB", 
    "admin_name": "Christ Church", 
    "capital": "", 
    "population": "", 
    "population_proper": ""
  }, 
  {
    "city": "Pilgrim Road", 
    "lat": "13.0791", 
    "lng": "-59.5099", 
    "country": "Barbados", 
    "iso2": "BB", 
    "admin_name": "Christ Church", 
    "capital": "", 
    "population": "", 
    "population_proper": ""
  }, 
  {
    "city": "Seaview", 
    "lat": "13.0644", 
    "lng": "-59.5025", 
    "country": "Barbados", 
    "iso2": "BB", 
    "admin_name": "Christ Church", 
    "capital": "", 
    "population": "", 
    "population_proper": ""
  }, 
  {
    "city": "Chancery Lane", 
    "lat": "13.0604", 
    "lng": "-59.5070", 
    "country": "Barbados", 
    "iso2": "BB", 
    "admin_name": "Christ Church", 
    "capital": "", 
    "population": "", 
    "population_proper": ""
  }, 
  {
    "city": "Staple Grove", 
    "lat": "13.0981", 
    "lng": "-59.5477", 
    "country": "Barbados", 
    "iso2": "BB", 
    "admin_name": "Christ Church", 
    "capital": "", 
    "population": "", 
    "population_proper": ""
  }, 
  {
    "city": "Silver Sands", 
    "lat": "13.0503", 
    "lng": "-59.5173", 
    "country": "Barbados", 
    "iso2": "BB", 
    "admin_name": "Christ Church", 
    "capital": "", 
    "population": "", 
    "population_proper": ""
  }, 
  {
    "city": "Sion Hill", 
    "lat": "13.1022", 
    "lng": "-59.5037", 
    "country": "Barbados", 
    "iso2": "BB", 
    "admin_name": "Christ Church", 
    "capital": "", 
    "population": "", 
    "population_proper": ""
  }, 
  {
    "city": "Coverley", 
    "lat": "13.0814", 
    "lng": "-59.5016", 
    "country": "Barbados", 
    "iso2": "BB", 
    "admin_name": "Christ Church", 
    "capital": "", 
    "population": "", 
    "population_proper": ""
  }, 
  {
    "city": "Boarded Hall", 
    "lat": "13.1080", 
    "lng": "-59.5375", 
    "country": "Barbados", 
    "iso2": "BB", 
    "admin_name": "Christ Church", 
    "capital": "", 
    "population": "", 
    "population_proper": ""
  }, 
  {
    "city": "Hannays Tenantry", 
    "lat": "13.1162", 
    "lng": "-59.5226", 
    "country": "Barbados", 
    "iso2": "BB", 
    "admin_name": "Christ Church", 
    "capital": "", 
    "population": "", 
    "population_proper": ""
  }, 
  {
    "city": "Atlantic Shores", 
    "lat": "13.0491", 
    "lng": "-59.5326", 
    "country": "Barbados", 
    "iso2": "BB", 
    "admin_name": "Christ Church", 
    "capital": "", 
    "population": "", 
    "population_proper": ""
  }, 
  {
    "city": "Charnocks", 
    "lat": "13.0847", 
    "lng": "-59.4944", 
    "country": "Barbados", 
    "iso2": "BB", 
    "admin_name": "Christ Church", 
    "capital": "", 
    "population": "", 
    "population_proper": ""
  }, 
  {
    "city": "Lead Vale", 
    "lat": "13.0854", 
    "lng": "-59.5108", 
    "country": "Barbados", 
    "iso2": "BB", 
    "admin_name": "Christ Church", 
    "capital": "", 
    "population": "", 
    "population_proper": ""
  }, 
  {
    "city": "Gibbons", 
    "lat": "13.0676", 
    "lng": "-59.5193", 
    "country": "Barbados", 
    "iso2": "BB", 
    "admin_name": "Christ Church", 
    "capital": "", 
    "population": "", 
    "population_proper": ""
  }, 
  {
    "city": "Briggs", 
    "lat": "13.1000", 
    "lng": "-59.5333", 
    "country": "Barbados", 
    "iso2": "BB", 
    "admin_name": "Christ Church", 
    "capital": "", 
    "population": "", 
    "population_proper": ""
  }, 
  {
    "city": "Searles", 
    "lat": "13.0913", 
    "lng": "-59.5027", 
    "country": "Barbados", 
    "iso2": "BB", 
    "admin_name": "Christ Church", 
    "capital": "", 
    "population": "", 
    "population_proper": ""
  }, 
  {
    "city": "Wilcox", 
    "lat": "13.0675", 
    "lng": "-59.5087", 
    "country": "Barbados", 
    "iso2": "BB", 
    "admin_name": "Christ Church", 
    "capital": "", 
    "population": "", 
    "population_proper": ""
  }, 
  {
    "city": "Skeenes Hill", 
    "lat": "13.1046", 
    "lng": "-59.5281", 
    "country": "Barbados", 
    "iso2": "BB", 
    "admin_name": "Christ Church", 
    "capital": "", 
    "population": "", 
    "population_proper": ""
  }, 
  {
    "city": "Paragon", 
    "lat": "13.0693", 
    "lng": "-59.4927", 
    "country": "Barbados", 
    "iso2": "BB", 
    "admin_name": "Christ Church", 
    "capital": "", 
    "population": "", 
    "population_proper": ""
  }, 
  {
    "city": "Goodland", 
    "lat": "13.0558", 
    "lng": "-59.5210", 
    "country": "Barbados", 
    "iso2": "BB", 
    "admin_name": "Christ Church", 
    "capital": "", 
    "population": "", 
    "population_proper": ""
  }, 
  {
    "city": "Sayes Court", 
    "lat": "13.0586", 
    "lng": "-59.5264", 
    "country": "Barbados", 
    "iso2": "BB", 
    "admin_name": "Christ Church", 
    "capital": "", 
    "population": "", 
    "population_proper": ""
  }, 
  {
    "city": "Enterprise", 
    "lat": "13.0540", 
    "lng": "-59.5301", 
    "country": "Barbados", 
    "iso2": "BB", 
    "admin_name": "Christ Church", 
    "capital": "", 
    "population": "", 
    "population_proper": ""
  }, 
  {
    "city": "Ealing Park", 
    "lat": "13.0556", 
    "lng": "-59.5132", 
    "country": "Barbados", 
    "iso2": "BB", 
    "admin_name": "Christ Church", 
    "capital": "", 
    "population": "", 
    "population_proper": ""
  }, 
  {
    "city": "Fairy Valley Rock", 
    "lat": "13.0681", 
    "lng": "-59.5020", 
    "country": "Barbados", 
    "iso2": "BB", 
    "admin_name": "Christ Church", 
    "capital": "", 
    "population": "", 
    "population_proper": ""
  }, 
  {
    "city": "St. Patricks", 
    "lat": "13.0987", 
    "lng": "-59.4979", 
    "country": "Barbados", 
    "iso2": "BB", 
    "admin_name": "Christ Church", 
    "capital": "", 
    "population": "", 
    "population_proper": ""
  }
]