[
  {
    "city": "Havana", 
    "lat": "23.1367", 
    "lng": "-82.3589", 
    "country": "Cuba", 
    "iso2": "CU", 
    "admin_name": "La Habana", 
    "capital": "primary", 
    "population": "2141652", 
    "population_proper": "2141652"
  }, 
  {
    "city": "Santiago de Cuba", 
    "lat": "20.0283", 
    "lng": "-75.8206", 
    "country": "Cuba", 
    "iso2": "CU", 
    "admin_name": "Santiago de Cuba", 
    "capital": "admin", 
    "population": "444851", 
    "population_proper": "444851"
  }, 
  {
    "city": "Holguín", 
    "lat": "20.8872", 
    "lng": "-76.2631", 
    "country": "Cuba", 
    "iso2": "CU", 
    "admin_name": "Holguín", 
    "capital": "admin", 
    "population": "350191", 
    "population_proper": "350191"
  }, 
  {
    "city": "Camagüey", 
    "lat": "21.3786", 
    "lng": "-77.9186", 
    "country": "Cuba", 
    "iso2": "CU", 
    "admin_name": "Camagüey", 
    "capital": "admin", 
    "population": "321992", 
    "population_proper": "321992"
  }, 
  {
    "city": "Bayamo", 
    "lat": "20.3817", 
    "lng": "-76.6428", 
    "country": "Cuba", 
    "iso2": "CU", 
    "admin_name": "Granma", 
    "capital": "admin", 
    "population": "235107", 
    "population_proper": "235107"
  }, 
  {
    "city": "Guantánamo", 
    "lat": "20.1383", 
    "lng": "-75.2061", 
    "country": "Cuba", 
    "iso2": "CU", 
    "admin_name": "Guantánamo", 
    "capital": "admin", 
    "population": "228436", 
    "population_proper": "228436"
  }, 
  {
    "city": "Carlos Manuel de Céspedes", 
    "lat": "21.5767", 
    "lng": "-78.2775", 
    "country": "Cuba", 
    "iso2": "CU", 
    "admin_name": "Camagüey", 
    "capital": "minor", 
    "population": "224488", 
    "population_proper": "224488"
  }, 
  {
    "city": "Arroyo Naranjo", 
    "lat": "23.0436", 
    "lng": "-82.3328", 
    "country": "Cuba", 
    "iso2": "CU", 
    "admin_name": "La Habana", 
    "capital": "", 
    "population": "210053", 
    "population_proper": "210053"
  }, 
  {
    "city": "Santa Clara", 
    "lat": "22.4067", 
    "lng": "-79.9531", 
    "country": "Cuba", 
    "iso2": "CU", 
    "admin_name": "Villa Clara", 
    "capital": "admin", 
    "population": "207963", 
    "population_proper": "207963"
  }, 
  {
    "city": "Las Tunas", 
    "lat": "20.9667", 
    "lng": "-76.9500", 
    "country": "Cuba", 
    "iso2": "CU", 
    "admin_name": "Las Tunas", 
    "capital": "admin", 
    "population": "202105", 
    "population_proper": "202105"
  }, 
  {
    "city": "Pinar del Río", 
    "lat": "22.4122", 
    "lng": "-83.6719", 
    "country": "Cuba", 
    "iso2": "CU", 
    "admin_name": "Pinar del Río", 
    "capital": "admin", 
    "population": "188614", 
    "population_proper": "188614"
  }, 
  {
    "city": "Cienfuegos", 
    "lat": "22.1456", 
    "lng": "-80.4364", 
    "country": "Cuba", 
    "iso2": "CU", 
    "admin_name": "Cienfuegos", 
    "capital": "admin", 
    "population": "164924", 
    "population_proper": "164924"
  }, 
  {
    "city": "Manzanillo", 
    "lat": "20.3397", 
    "lng": "-77.1086", 
    "country": "Cuba", 
    "iso2": "CU", 
    "admin_name": "Granma", 
    "capital": "minor", 
    "population": "150999", 
    "population_proper": "150999"
  }, 
  {
    "city": "Matanzas", 
    "lat": "23.0494", 
    "lng": "-81.5736", 
    "country": "Cuba", 
    "iso2": "CU", 
    "admin_name": "Matanzas", 
    "capital": "admin", 
    "population": "145246", 
    "population_proper": "145246"
  }, 
  {
    "city": "Ciego de Ávila", 
    "lat": "21.8481", 
    "lng": "-78.7631", 
    "country": "Cuba", 
    "iso2": "CU", 
    "admin_name": "Ciego de Ávila", 
    "capital": "admin", 
    "population": "143449", 
    "population_proper": "143449"
  }, 
  {
    "city": "Centro Habana", 
    "lat": "23.1333", 
    "lng": "-82.3833", 
    "country": "Cuba", 
    "iso2": "CU", 
    "admin_name": "La Habana", 
    "capital": "", 
    "population": "140234", 
    "population_proper": "140234"
  }, 
  {
    "city": "Sancti Spíritus", 
    "lat": "21.9339", 
    "lng": "-79.4439", 
    "country": "Cuba", 
    "iso2": "CU", 
    "admin_name": "Sancti Spíritus", 
    "capital": "admin", 
    "population": "138504", 
    "population_proper": "138504"
  }, 
  {
    "city": "Contramaestre", 
    "lat": "20.3000", 
    "lng": "-76.2506", 
    "country": "Cuba", 
    "iso2": "CU", 
    "admin_name": "Santiago de Cuba", 
    "capital": "minor", 
    "population": "106002", 
    "population_proper": "106002"
  }, 
  {
    "city": "Mayarí", 
    "lat": "20.6592", 
    "lng": "-75.6781", 
    "country": "Cuba", 
    "iso2": "CU", 
    "admin_name": "Holguín", 
    "capital": "minor", 
    "population": "102354", 
    "population_proper": "102354"
  }, 
  {
    "city": "San Luis", 
    "lat": "20.1881", 
    "lng": "-75.8486", 
    "country": "Cuba", 
    "iso2": "CU", 
    "admin_name": "Santiago de Cuba", 
    "capital": "minor", 
    "population": "88496", 
    "population_proper": "88496"
  }, 
  {
    "city": "Jagüey Grande", 
    "lat": "22.5292", 
    "lng": "-81.1325", 
    "country": "Cuba", 
    "iso2": "CU", 
    "admin_name": "Matanzas", 
    "capital": "minor", 
    "population": "87771", 
    "population_proper": "87771"
  }, 
  {
    "city": "Consolación del Sur", 
    "lat": "22.5083", 
    "lng": "-83.5172", 
    "country": "Cuba", 
    "iso2": "CU", 
    "admin_name": "Pinar del Río", 
    "capital": "minor", 
    "population": "87500", 
    "population_proper": "87500"
  }, 
  {
    "city": "Baracoa", 
    "lat": "20.3444", 
    "lng": "-74.4956", 
    "country": "Cuba", 
    "iso2": "CU", 
    "admin_name": "Guantánamo", 
    "capital": "minor", 
    "population": "79797", 
    "population_proper": "79797"
  }, 
  {
    "city": "Palma Soriano", 
    "lat": "20.2139", 
    "lng": "-75.9919", 
    "country": "Cuba", 
    "iso2": "CU", 
    "admin_name": "Santiago de Cuba", 
    "capital": "minor", 
    "population": "76500", 
    "population_proper": "76500"
  }, 
  {
    "city": "Moa", 
    "lat": "20.6556", 
    "lng": "-74.9417", 
    "country": "Cuba", 
    "iso2": "CU", 
    "admin_name": "Holguín", 
    "capital": "minor", 
    "population": "73053", 
    "population_proper": "73053"
  }, 
  {
    "city": "Colón", 
    "lat": "22.7225", 
    "lng": "-80.9067", 
    "country": "Cuba", 
    "iso2": "CU", 
    "admin_name": "Matanzas", 
    "capital": "minor", 
    "population": "72000", 
    "population_proper": "72000"
  }, 
  {
    "city": "Florida", 
    "lat": "21.5294", 
    "lng": "-78.2228", 
    "country": "Cuba", 
    "iso2": "CU", 
    "admin_name": "Camagüey", 
    "capital": "minor", 
    "population": "71676", 
    "population_proper": "71676"
  }, 
  {
    "city": "Placetas", 
    "lat": "22.3158", 
    "lng": "-79.6556", 
    "country": "Cuba", 
    "iso2": "CU", 
    "admin_name": "Villa Clara", 
    "capital": "minor", 
    "population": "71208", 
    "population_proper": "71208"
  }, 
  {
    "city": "Gibara", 
    "lat": "21.1072", 
    "lng": "-76.1367", 
    "country": "Cuba", 
    "iso2": "CU", 
    "admin_name": "Holguín", 
    "capital": "minor", 
    "population": "71126", 
    "population_proper": "71126"
  }, 
  {
    "city": "Güines", 
    "lat": "22.8475", 
    "lng": "-82.0236", 
    "country": "Cuba", 
    "iso2": "CU", 
    "admin_name": "Mayabeque", 
    "capital": "minor", 
    "population": "66892", 
    "population_proper": "66892"
  }, 
  {
    "city": "Yara", 
    "lat": "20.2767", 
    "lng": "-76.9469", 
    "country": "Cuba", 
    "iso2": "CU", 
    "admin_name": "Granma", 
    "capital": "minor", 
    "population": "59415", 
    "population_proper": "59415"
  }, 
  {
    "city": "Morón", 
    "lat": "22.1108", 
    "lng": "-78.6278", 
    "country": "Cuba", 
    "iso2": "CU", 
    "admin_name": "Ciego de Ávila", 
    "capital": "minor", 
    "population": "59371", 
    "population_proper": "59371"
  }, 
  {
    "city": "Artemisa", 
    "lat": "22.8136", 
    "lng": "-82.7633", 
    "country": "Cuba", 
    "iso2": "CU", 
    "admin_name": "Artemisa", 
    "capital": "admin", 
    "population": "59130", 
    "population_proper": "59130"
  }, 
  {
    "city": "Jovellanos", 
    "lat": "22.8106", 
    "lng": "-81.1981", 
    "country": "Cuba", 
    "iso2": "CU", 
    "admin_name": "Matanzas", 
    "capital": "minor", 
    "population": "58685", 
    "population_proper": "58685"
  }, 
  {
    "city": "Bartolomé Masó", 
    "lat": "20.1686", 
    "lng": "-76.9428", 
    "country": "Cuba", 
    "iso2": "CU", 
    "admin_name": "Granma", 
    "capital": "minor", 
    "population": "56460", 
    "population_proper": "56460"
  }, 
  {
    "city": "Sagua la Grande", 
    "lat": "22.8086", 
    "lng": "-80.0711", 
    "country": "Cuba", 
    "iso2": "CU", 
    "admin_name": "Villa Clara", 
    "capital": "minor", 
    "population": "53077", 
    "population_proper": "53077"
  }, 
  {
    "city": "Jobabo", 
    "lat": "20.9078", 
    "lng": "-77.2831", 
    "country": "Cuba", 
    "iso2": "CU", 
    "admin_name": "Las Tunas", 
    "capital": "minor", 
    "population": "47350", 
    "population_proper": "47350"
  }, 
  {
    "city": "Salvador", 
    "lat": "20.2094", 
    "lng": "-75.2231", 
    "country": "Cuba", 
    "iso2": "CU", 
    "admin_name": "Guantánamo", 
    "capital": "", 
    "population": "45773", 
    "population_proper": "45773"
  }, 
  {
    "city": "Remedios", 
    "lat": "22.4922", 
    "lng": "-79.5458", 
    "country": "Cuba", 
    "iso2": "CU", 
    "admin_name": "Villa Clara", 
    "capital": "minor", 
    "population": "45621", 
    "population_proper": "45621"
  }, 
  {
    "city": "Nueva Gerona", 
    "lat": "21.8847", 
    "lng": "-82.8011", 
    "country": "Cuba", 
    "iso2": "CU", 
    "admin_name": "Isla de la Juventud", 
    "capital": "admin", 
    "population": "45577", 
    "population_proper": "45577"
  }, 
  {
    "city": "San Juan y Martínez", 
    "lat": "22.2667", 
    "lng": "-83.8333", 
    "country": "Cuba", 
    "iso2": "CU", 
    "admin_name": "Pinar del Río", 
    "capital": "minor", 
    "population": "44344", 
    "population_proper": "44344"
  }, 
  {
    "city": "Bahía Honda", 
    "lat": "22.9064", 
    "lng": "-83.1639", 
    "country": "Cuba", 
    "iso2": "CU", 
    "admin_name": "Artemisa", 
    "capital": "minor", 
    "population": "43483", 
    "population_proper": "43483"
  }, 
  {
    "city": "Jatibonico", 
    "lat": "21.9464", 
    "lng": "-79.1675", 
    "country": "Cuba", 
    "iso2": "CU", 
    "admin_name": "Sancti Spíritus", 
    "capital": "minor", 
    "population": "42959", 
    "population_proper": "42959"
  }, 
  {
    "city": "Mariel", 
    "lat": "22.9936", 
    "lng": "-82.7539", 
    "country": "Cuba", 
    "iso2": "CU", 
    "admin_name": "Artemisa", 
    "capital": "minor", 
    "population": "42500", 
    "population_proper": "42500"
  }, 
  {
    "city": "Niquero", 
    "lat": "20.0472", 
    "lng": "-77.5781", 
    "country": "Cuba", 
    "iso2": "CU", 
    "admin_name": "Granma", 
    "capital": "minor", 
    "population": "41252", 
    "population_proper": "41252"
  }, 
  {
    "city": "Chambas", 
    "lat": "22.1967", 
    "lng": "-78.9133", 
    "country": "Cuba", 
    "iso2": "CU", 
    "admin_name": "Ciego de Ávila", 
    "capital": "minor", 
    "population": "41000", 
    "population_proper": "41000"
  }, 
  {
    "city": "Nuevitas", 
    "lat": "21.5403", 
    "lng": "-77.2644", 
    "country": "Cuba", 
    "iso2": "CU", 
    "admin_name": "Camagüey", 
    "capital": "", 
    "population": "38995", 
    "population_proper": "38995"
  }, 
  {
    "city": "Los Palacios", 
    "lat": "22.5822", 
    "lng": "-83.2489", 
    "country": "Cuba", 
    "iso2": "CU", 
    "admin_name": "Pinar del Río", 
    "capital": "minor", 
    "population": "38731", 
    "population_proper": "38731"
  }, 
  {
    "city": "Caibarién", 
    "lat": "22.5158", 
    "lng": "-79.4722", 
    "country": "Cuba", 
    "iso2": "CU", 
    "admin_name": "Villa Clara", 
    "capital": "minor", 
    "population": "38479", 
    "population_proper": "38479"
  }, 
  {
    "city": "Güira de Melena", 
    "lat": "22.8019", 
    "lng": "-82.5047", 
    "country": "Cuba", 
    "iso2": "CU", 
    "admin_name": "Artemisa", 
    "capital": "minor", 
    "population": "37838", 
    "population_proper": "37838"
  }, 
  {
    "city": "Caimito", 
    "lat": "22.9575", 
    "lng": "-82.5964", 
    "country": "Cuba", 
    "iso2": "CU", 
    "admin_name": "Artemisa", 
    "capital": "minor", 
    "population": "36813", 
    "population_proper": "36813"
  }, 
  {
    "city": "Guane", 
    "lat": "22.2006", 
    "lng": "-84.0839", 
    "country": "Cuba", 
    "iso2": "CU", 
    "admin_name": "Pinar del Río", 
    "capital": "", 
    "population": "35718", 
    "population_proper": "35718"
  }, 
  {
    "city": "Guamá Abajo", 
    "lat": "19.9758", 
    "lng": "-76.4100", 
    "country": "Cuba", 
    "iso2": "CU", 
    "admin_name": "Santiago de Cuba", 
    "capital": "", 
    "population": "35516", 
    "population_proper": "35516"
  }, 
  {
    "city": "La Palma", 
    "lat": "22.7472", 
    "lng": "-83.5525", 
    "country": "Cuba", 
    "iso2": "CU", 
    "admin_name": "Pinar del Río", 
    "capital": "minor", 
    "population": "35346", 
    "population_proper": "35346"
  }, 
  {
    "city": "Banes", 
    "lat": "20.9697", 
    "lng": "-75.7117", 
    "country": "Cuba", 
    "iso2": "CU", 
    "admin_name": "Holguín", 
    "capital": "minor", 
    "population": "34452", 
    "population_proper": "34452"
  }, 
  {
    "city": "San Antonio de los Baños", 
    "lat": "22.8889", 
    "lng": "-82.4989", 
    "country": "Cuba", 
    "iso2": "CU", 
    "admin_name": "Artemisa", 
    "capital": "minor", 
    "population": "33811", 
    "population_proper": "33811"
  }, 
  {
    "city": "Mella", 
    "lat": "20.3694", 
    "lng": "-75.9111", 
    "country": "Cuba", 
    "iso2": "CU", 
    "admin_name": "Santiago de Cuba", 
    "capital": "", 
    "population": "33667", 
    "population_proper": "33667"
  }, 
  {
    "city": "San Luis", 
    "lat": "22.2828", 
    "lng": "-83.7681", 
    "country": "Cuba", 
    "iso2": "CU", 
    "admin_name": "Pinar del Río", 
    "capital": "minor", 
    "population": "33039", 
    "population_proper": "33039"
  }, 
  {
    "city": "Baraguá", 
    "lat": "21.6819", 
    "lng": "-78.6244", 
    "country": "Cuba", 
    "iso2": "CU", 
    "admin_name": "Ciego de Ávila", 
    "capital": "", 
    "population": "32909", 
    "population_proper": "32909"
  }, 
  {
    "city": "Cabaiguán", 
    "lat": "22.0839", 
    "lng": "-79.4953", 
    "country": "Cuba", 
    "iso2": "CU", 
    "admin_name": "Sancti Spíritus", 
    "capital": "minor", 
    "population": "32000", 
    "population_proper": "32000"
  }, 
  {
    "city": "Alquízar", 
    "lat": "22.8067", 
    "lng": "-82.5828", 
    "country": "Cuba", 
    "iso2": "CU", 
    "admin_name": "Artemisa", 
    "capital": "minor", 
    "population": "29616", 
    "population_proper": "29616"
  }, 
  {
    "city": "Quivicán", 
    "lat": "22.8247", 
    "lng": "-82.3558", 
    "country": "Cuba", 
    "iso2": "CU", 
    "admin_name": "Mayabeque", 
    "capital": "minor", 
    "population": "29253", 
    "population_proper": "29253"
  }, 
  {
    "city": "San Cristóbal", 
    "lat": "22.7169", 
    "lng": "-83.0511", 
    "country": "Cuba", 
    "iso2": "CU", 
    "admin_name": "Artemisa", 
    "capital": "minor", 
    "population": "29119", 
    "population_proper": "29119"
  }, 
  {
    "city": "Primero de Enero", 
    "lat": "21.9453", 
    "lng": "-78.4189", 
    "country": "Cuba", 
    "iso2": "CU", 
    "admin_name": "Ciego de Ávila", 
    "capital": "minor", 
    "population": "29117", 
    "population_proper": "29117"
  }, 
  {
    "city": "Venezuela", 
    "lat": "21.7511", 
    "lng": "-78.7792", 
    "country": "Cuba", 
    "iso2": "CU", 
    "admin_name": "Ciego de Ávila", 
    "capital": "minor", 
    "population": "28470", 
    "population_proper": "28470"
  }, 
  {
    "city": "Ciro Redondo", 
    "lat": "22.0189", 
    "lng": "-78.7031", 
    "country": "Cuba", 
    "iso2": "CU", 
    "admin_name": "Ciego de Ávila", 
    "capital": "minor", 
    "population": "28370", 
    "population_proper": "28370"
  }, 
  {
    "city": "Viñales", 
    "lat": "22.6153", 
    "lng": "-83.7158", 
    "country": "Cuba", 
    "iso2": "CU", 
    "admin_name": "Pinar del Río", 
    "capital": "minor", 
    "population": "27771", 
    "population_proper": "27771"
  }, 
  {
    "city": "Majagua", 
    "lat": "21.9244", 
    "lng": "-78.9906", 
    "country": "Cuba", 
    "iso2": "CU", 
    "admin_name": "Ciego de Ávila", 
    "capital": "minor", 
    "population": "26830", 
    "population_proper": "26830"
  }, 
  {
    "city": "San Antonio del Sur", 
    "lat": "20.0569", 
    "lng": "-74.8078", 
    "country": "Cuba", 
    "iso2": "CU", 
    "admin_name": "Guantánamo", 
    "capital": "minor", 
    "population": "26509", 
    "population_proper": "26509"
  }, 
  {
    "city": "Surgidero de Batabanó", 
    "lat": "22.6986", 
    "lng": "-82.2939", 
    "country": "Cuba", 
    "iso2": "CU", 
    "admin_name": "Mayabeque", 
    "capital": "", 
    "population": "25664", 
    "population_proper": "25664"
  }, 
  {
    "city": "Nueva Paz", 
    "lat": "22.7667", 
    "lng": "-81.7500", 
    "country": "Cuba", 
    "iso2": "CU", 
    "admin_name": "Mayabeque", 
    "capital": "minor", 
    "population": "24277", 
    "population_proper": "24277"
  }, 
  {
    "city": "Bauta", 
    "lat": "22.9919", 
    "lng": "-82.5492", 
    "country": "Cuba", 
    "iso2": "CU", 
    "admin_name": "Artemisa", 
    "capital": "minor", 
    "population": "23557", 
    "population_proper": "23557"
  }, 
  {
    "city": "Abreus", 
    "lat": "22.2806", 
    "lng": "-80.5678", 
    "country": "Cuba", 
    "iso2": "CU", 
    "admin_name": "Cienfuegos", 
    "capital": "", 
    "population": "23144", 
    "population_proper": "23144"
  }, 
  {
    "city": "Guanajay", 
    "lat": "22.9306", 
    "lng": "-82.6881", 
    "country": "Cuba", 
    "iso2": "CU", 
    "admin_name": "Artemisa", 
    "capital": "minor", 
    "population": "22839", 
    "population_proper": "22839"
  }, 
  {
    "city": "Lajas", 
    "lat": "22.4164", 
    "lng": "-80.2906", 
    "country": "Cuba", 
    "iso2": "CU", 
    "admin_name": "Cienfuegos", 
    "capital": "minor", 
    "population": "22602", 
    "population_proper": "22602"
  }, 
  {
    "city": "San Nicolás", 
    "lat": "22.7819", 
    "lng": "-81.9069", 
    "country": "Cuba", 
    "iso2": "CU", 
    "admin_name": "Mayabeque", 
    "capital": "minor", 
    "population": "21563", 
    "population_proper": "21563"
  }, 
  {
    "city": "Manuel Tames", 
    "lat": "20.1803", 
    "lng": "-75.0514", 
    "country": "Cuba", 
    "iso2": "CU", 
    "admin_name": "Guantánamo", 
    "capital": "", 
    "population": "21237", 
    "population_proper": "21237"
  }, 
  {
    "city": "Varadero", 
    "lat": "23.1394", 
    "lng": "-81.2861", 
    "country": "Cuba", 
    "iso2": "CU", 
    "admin_name": "Matanzas", 
    "capital": "", 
    "population": "21170", 
    "population_proper": "21170"
  }, 
  {
    "city": "Florencia", 
    "lat": "22.1475", 
    "lng": "-78.9669", 
    "country": "Cuba", 
    "iso2": "CU", 
    "admin_name": "Ciego de Ávila", 
    "capital": "minor", 
    "population": "21150", 
    "population_proper": "21150"
  }, 
  {
    "city": "Melena del Sur", 
    "lat": "22.7814", 
    "lng": "-82.1486", 
    "country": "Cuba", 
    "iso2": "CU", 
    "admin_name": "Mayabeque", 
    "capital": "minor", 
    "population": "20646", 
    "population_proper": "20646"
  }, 
  {
    "city": "Candelaria", 
    "lat": "22.7439", 
    "lng": "-82.9581", 
    "country": "Cuba", 
    "iso2": "CU", 
    "admin_name": "Artemisa", 
    "capital": "minor", 
    "population": "19523", 
    "population_proper": "19523"
  }, 
  {
    "city": "Najasa", 
    "lat": "21.0836", 
    "lng": "-77.7472", 
    "country": "Cuba", 
    "iso2": "CU", 
    "admin_name": "Camagüey", 
    "capital": "minor", 
    "population": "15579", 
    "population_proper": "15579"
  }, 
  {
    "city": "Imías", 
    "lat": "20.0767", 
    "lng": "-74.6519", 
    "country": "Cuba", 
    "iso2": "CU", 
    "admin_name": "Guantánamo", 
    "capital": "minor", 
    "population": "9699", 
    "population_proper": "9699"
  }, 
  {
    "city": "Caimanera", 
    "lat": "19.9947", 
    "lng": "-75.1600", 
    "country": "Cuba", 
    "iso2": "CU", 
    "admin_name": "Guantánamo", 
    "capital": "", 
    "population": "8790", 
    "population_proper": "8790"
  }, 
  {
    "city": "Fernando Echenique", 
    "lat": "20.5500", 
    "lng": "-76.9000", 
    "country": "Cuba", 
    "iso2": "CU", 
    "admin_name": "Granma", 
    "capital": "", 
    "population": "4303", 
    "population_proper": "4303"
  }, 
  {
    "city": "Maisí", 
    "lat": "20.2431", 
    "lng": "-74.1561", 
    "country": "Cuba", 
    "iso2": "CU", 
    "admin_name": "Guantánamo", 
    "capital": "", 
    "population": "2938", 
    "population_proper": "2938"
  }, 
  {
    "city": "San José de las Lajas", 
    "lat": "22.9614", 
    "lng": "-82.1511", 
    "country": "Cuba", 
    "iso2": "CU", 
    "admin_name": "Mayabeque", 
    "capital": "admin", 
    "population": "", 
    "population_proper": ""
  }, 
  {
    "city": "Bejucal", 
    "lat": "22.9328", 
    "lng": "-82.3869", 
    "country": "Cuba", 
    "iso2": "CU", 
    "admin_name": "Mayabeque", 
    "capital": "minor", 
    "population": "", 
    "population_proper": ""
  }, 
  {
    "city": "Vertientes", 
    "lat": "21.2569", 
    "lng": "-78.1492", 
    "country": "Cuba", 
    "iso2": "CU", 
    "admin_name": "Camagüey", 
    "capital": "minor", 
    "population": "", 
    "population_proper": ""
  }, 
  {
    "city": "Cárdenas", 
    "lat": "23.0367", 
    "lng": "-81.2058", 
    "country": "Cuba", 
    "iso2": "CU", 
    "admin_name": "Matanzas", 
    "capital": "minor", 
    "population": "", 
    "population_proper": ""
  }, 
  {
    "city": "Limonar", 
    "lat": "22.9504", 
    "lng": "-81.4106", 
    "country": "Cuba", 
    "iso2": "CU", 
    "admin_name": "Matanzas", 
    "capital": "minor", 
    "population": "", 
    "population_proper": ""
  }, 
  {
    "city": "Batabanó", 
    "lat": "22.7179", 
    "lng": "-82.2897", 
    "country": "Cuba", 
    "iso2": "CU", 
    "admin_name": "Mayabeque", 
    "capital": "minor", 
    "population": "", 
    "population_proper": ""
  }, 
  {
    "city": "Ranchuelo", 
    "lat": "22.3358", 
    "lng": "-80.1131", 
    "country": "Cuba", 
    "iso2": "CU", 
    "admin_name": "Villa Clara", 
    "capital": "minor", 
    "population": "", 
    "population_proper": ""
  }, 
  {
    "city": "Antilla", 
    "lat": "20.8411", 
    "lng": "-75.7206", 
    "country": "Cuba", 
    "iso2": "CU", 
    "admin_name": "Holguín", 
    "capital": "minor", 
    "population": "", 
    "population_proper": ""
  }, 
  {
    "city": "Santa Lucía", 
    "lat": "21.0281", 
    "lng": "-75.9964", 
    "country": "Cuba", 
    "iso2": "CU", 
    "admin_name": "Holguín", 
    "capital": "minor", 
    "population": "", 
    "population_proper": ""
  }, 
  {
    "city": "Jaruco", 
    "lat": "23.0428", 
    "lng": "-82.0094", 
    "country": "Cuba", 
    "iso2": "CU", 
    "admin_name": "Mayabeque", 
    "capital": "minor", 
    "population": "", 
    "population_proper": ""
  }, 
  {
    "city": "Palmira", 
    "lat": "22.2444", 
    "lng": "-80.3944", 
    "country": "Cuba", 
    "iso2": "CU", 
    "admin_name": "Cienfuegos", 
    "capital": "minor", 
    "population": "", 
    "population_proper": ""
  }, 
  {
    "city": "Camajuaní", 
    "lat": "22.4678", 
    "lng": "-79.7239", 
    "country": "Cuba", 
    "iso2": "CU", 
    "admin_name": "Villa Clara", 
    "capital": "minor", 
    "population": "", 
    "population_proper": ""
  }, 
  {
    "city": "Perico", 
    "lat": "22.7753", 
    "lng": "-81.0153", 
    "country": "Cuba", 
    "iso2": "CU", 
    "admin_name": "Matanzas", 
    "capital": "minor", 
    "population": "", 
    "population_proper": ""
  }, 
  {
    "city": "Pedro Betancourt", 
    "lat": "22.7303", 
    "lng": "-81.2908", 
    "country": "Cuba", 
    "iso2": "CU", 
    "admin_name": "Matanzas", 
    "capital": "minor", 
    "population": "", 
    "population_proper": ""
  }, 
  {
    "city": "Campechuela", 
    "lat": "20.2333", 
    "lng": "-77.2792", 
    "country": "Cuba", 
    "iso2": "CU", 
    "admin_name": "Granma", 
    "capital": "minor", 
    "population": "", 
    "population_proper": ""
  }, 
  {
    "city": "Trinidad", 
    "lat": "21.8019", 
    "lng": "-79.9842", 
    "country": "Cuba", 
    "iso2": "CU", 
    "admin_name": "Sancti Spíritus", 
    "capital": "minor", 
    "population": "", 
    "population_proper": ""
  }, 
  {
    "city": "Media Luna", 
    "lat": "20.1444", 
    "lng": "-77.4361", 
    "country": "Cuba", 
    "iso2": "CU", 
    "admin_name": "Granma", 
    "capital": "minor", 
    "population": "", 
    "population_proper": ""
  }, 
  {
    "city": "Taguasco", 
    "lat": "22.0050", 
    "lng": "-79.2650", 
    "country": "Cuba", 
    "iso2": "CU", 
    "admin_name": "Sancti Spíritus", 
    "capital": "minor", 
    "population": "", 
    "population_proper": ""
  }, 
  {
    "city": "Santa Cruz del Norte", 
    "lat": "23.1537", 
    "lng": "-81.9261", 
    "country": "Cuba", 
    "iso2": "CU", 
    "admin_name": "Mayabeque", 
    "capital": "minor", 
    "population": "", 
    "population_proper": ""
  }, 
  {
    "city": "Fomento", 
    "lat": "22.1053", 
    "lng": "-79.7203", 
    "country": "Cuba", 
    "iso2": "CU", 
    "admin_name": "Sancti Spíritus", 
    "capital": "minor", 
    "population": "", 
    "population_proper": ""
  }, 
  {
    "city": "Rodas", 
    "lat": "22.3428", 
    "lng": "-80.5553", 
    "country": "Cuba", 
    "iso2": "CU", 
    "admin_name": "Cienfuegos", 
    "capital": "minor", 
    "population": "", 
    "population_proper": ""
  }, 
  {
    "city": "Calixto", 
    "lat": "20.9204", 
    "lng": "-76.8714", 
    "country": "Cuba", 
    "iso2": "CU", 
    "admin_name": "Las Tunas", 
    "capital": "minor", 
    "population": "", 
    "population_proper": ""
  }, 
  {
    "city": "Puerto Padre", 
    "lat": "21.1950", 
    "lng": "-76.6017", 
    "country": "Cuba", 
    "iso2": "CU", 
    "admin_name": "Las Tunas", 
    "capital": "minor", 
    "population": "", 
    "population_proper": ""
  }, 
  {
    "city": "Sagua de Tánamo", 
    "lat": "20.5858", 
    "lng": "-75.2417", 
    "country": "Cuba", 
    "iso2": "CU", 
    "admin_name": "Holguín", 
    "capital": "minor", 
    "population": "", 
    "population_proper": ""
  }, 
  {
    "city": "Manicaragua", 
    "lat": "22.1500", 
    "lng": "-79.9764", 
    "country": "Cuba", 
    "iso2": "CU", 
    "admin_name": "Villa Clara", 
    "capital": "minor", 
    "population": "", 
    "population_proper": ""
  }, 
  {
    "city": "Quemado de Güines", 
    "lat": "22.7900", 
    "lng": "-80.2561", 
    "country": "Cuba", 
    "iso2": "CU", 
    "admin_name": "Villa Clara", 
    "capital": "minor", 
    "population": "", 
    "population_proper": ""
  }, 
  {
    "city": "Guisa", 
    "lat": "20.2608", 
    "lng": "-76.5381", 
    "country": "Cuba", 
    "iso2": "CU", 
    "admin_name": "Granma", 
    "capital": "minor", 
    "population": "", 
    "population_proper": ""
  }, 
  {
    "city": "Jesús Menéndez", 
    "lat": "21.1633", 
    "lng": "-76.4775", 
    "country": "Cuba", 
    "iso2": "CU", 
    "admin_name": "Las Tunas", 
    "capital": "minor", 
    "population": "", 
    "population_proper": ""
  }, 
  {
    "city": "Jiguaní", 
    "lat": "20.3731", 
    "lng": "-76.4222", 
    "country": "Cuba", 
    "iso2": "CU", 
    "admin_name": "Granma", 
    "capital": "minor", 
    "population": "", 
    "population_proper": ""
  }, 
  {
    "city": "Colombia", 
    "lat": "20.9906", 
    "lng": "-77.4158", 
    "country": "Cuba", 
    "iso2": "CU", 
    "admin_name": "Las Tunas", 
    "capital": "minor", 
    "population": "", 
    "population_proper": ""
  }, 
  {
    "city": "Pilón", 
    "lat": "19.9053", 
    "lng": "-77.3208", 
    "country": "Cuba", 
    "iso2": "CU", 
    "admin_name": "Granma", 
    "capital": "minor", 
    "population": "", 
    "population_proper": ""
  }, 
  {
    "city": "Báguanos", 
    "lat": "20.7631", 
    "lng": "-76.0297", 
    "country": "Cuba", 
    "iso2": "CU", 
    "admin_name": "Holguín", 
    "capital": "minor", 
    "population": "", 
    "population_proper": ""
  }, 
  {
    "city": "Aguada de Pasajeros", 
    "lat": "22.3847", 
    "lng": "-80.8461", 
    "country": "Cuba", 
    "iso2": "CU", 
    "admin_name": "Cienfuegos", 
    "capital": "minor", 
    "population": "", 
    "population_proper": ""
  }, 
  {
    "city": "Cayo Mambí", 
    "lat": "20.6647", 
    "lng": "-75.2814", 
    "country": "Cuba", 
    "iso2": "CU", 
    "admin_name": "Holguín", 
    "capital": "minor", 
    "population": "", 
    "population_proper": ""
  }, 
  {
    "city": "Buey Arriba", 
    "lat": "20.1736", 
    "lng": "-76.7494", 
    "country": "Cuba", 
    "iso2": "CU", 
    "admin_name": "Granma", 
    "capital": "minor", 
    "population": "", 
    "population_proper": ""
  }, 
  {
    "city": "Amancio", 
    "lat": "20.8197", 
    "lng": "-77.5844", 
    "country": "Cuba", 
    "iso2": "CU", 
    "admin_name": "Las Tunas", 
    "capital": "minor", 
    "population": "", 
    "population_proper": ""
  }, 
  {
    "city": "Santo Domingo", 
    "lat": "22.5833", 
    "lng": "-80.2383", 
    "country": "Cuba", 
    "iso2": "CU", 
    "admin_name": "Villa Clara", 
    "capital": "minor", 
    "population": "", 
    "population_proper": ""
  }, 
  {
    "city": "Cumanayagua", 
    "lat": "22.1522", 
    "lng": "-80.2011", 
    "country": "Cuba", 
    "iso2": "CU", 
    "admin_name": "Cienfuegos", 
    "capital": "minor", 
    "population": "", 
    "population_proper": ""
  }, 
  {
    "city": "Madruga", 
    "lat": "22.9114", 
    "lng": "-81.8561", 
    "country": "Cuba", 
    "iso2": "CU", 
    "admin_name": "Mayabeque", 
    "capital": "minor", 
    "population": "", 
    "population_proper": ""
  }, 
  {
    "city": "Cacocum", 
    "lat": "20.7439", 
    "lng": "-76.3242", 
    "country": "Cuba", 
    "iso2": "CU", 
    "admin_name": "Holguín", 
    "capital": "minor", 
    "population": "", 
    "population_proper": ""
  }, 
  {
    "city": "Cifuentes", 
    "lat": "22.6208", 
    "lng": "-80.0661", 
    "country": "Cuba", 
    "iso2": "CU", 
    "admin_name": "Villa Clara", 
    "capital": "minor", 
    "population": "", 
    "population_proper": ""
  }, 
  {
    "city": "La Sierpe", 
    "lat": "21.7606", 
    "lng": "-79.2433", 
    "country": "Cuba", 
    "iso2": "CU", 
    "admin_name": "Sancti Spíritus", 
    "capital": "minor", 
    "population": "", 
    "population_proper": ""
  }, 
  {
    "city": "Cubitas", 
    "lat": "21.7121", 
    "lng": "-77.7613", 
    "country": "Cuba", 
    "iso2": "CU", 
    "admin_name": "Camagüey", 
    "capital": "minor", 
    "population": "", 
    "population_proper": ""
  }, 
  {
    "city": "Encrucijada", 
    "lat": "22.6169", 
    "lng": "-79.8661", 
    "country": "Cuba", 
    "iso2": "CU", 
    "admin_name": "Villa Clara", 
    "capital": "minor", 
    "population": "", 
    "population_proper": ""
  }, 
  {
    "city": "La Máquina", 
    "lat": "20.1920", 
    "lng": "-74.2272", 
    "country": "Cuba", 
    "iso2": "CU", 
    "admin_name": "Guantánamo", 
    "capital": "minor", 
    "population": "", 
    "population_proper": ""
  }, 
  {
    "city": "San Germán", 
    "lat": "20.6011", 
    "lng": "-76.1325", 
    "country": "Cuba", 
    "iso2": "CU", 
    "admin_name": "Holguín", 
    "capital": "minor", 
    "population": "", 
    "population_proper": ""
  }, 
  {
    "city": "Yaguajay", 
    "lat": "22.3303", 
    "lng": "-79.2369", 
    "country": "Cuba", 
    "iso2": "CU", 
    "admin_name": "Sancti Spíritus", 
    "capital": "minor", 
    "population": "", 
    "population_proper": ""
  }, 
  {
    "city": "Cruces", 
    "lat": "22.3419", 
    "lng": "-80.2761", 
    "country": "Cuba", 
    "iso2": "CU", 
    "admin_name": "Cienfuegos", 
    "capital": "minor", 
    "population": "", 
    "population_proper": ""
  }, 
  {
    "city": "Unión de Reyes", 
    "lat": "22.8003", 
    "lng": "-81.5372", 
    "country": "Cuba", 
    "iso2": "CU", 
    "admin_name": "Matanzas", 
    "capital": "minor", 
    "population": "", 
    "population_proper": ""
  }, 
  {
    "city": "Sibanicú", 
    "lat": "21.2389", 
    "lng": "-77.5211", 
    "country": "Cuba", 
    "iso2": "CU", 
    "admin_name": "Camagüey", 
    "capital": "minor", 
    "population": "", 
    "population_proper": ""
  }, 
  {
    "city": "Río Cauto", 
    "lat": "20.5636", 
    "lng": "-76.9172", 
    "country": "Cuba", 
    "iso2": "CU", 
    "admin_name": "Granma", 
    "capital": "minor", 
    "population": "", 
    "population_proper": ""
  }, 
  {
    "city": "Gaspar", 
    "lat": "21.7387", 
    "lng": "-78.5443", 
    "country": "Cuba", 
    "iso2": "CU", 
    "admin_name": "Ciego de Ávila", 
    "capital": "minor", 
    "population": "", 
    "population_proper": ""
  }, 
  {
    "city": "Manatí", 
    "lat": "21.3144", 
    "lng": "-76.9378", 
    "country": "Cuba", 
    "iso2": "CU", 
    "admin_name": "Las Tunas", 
    "capital": "minor", 
    "population": "", 
    "population_proper": ""
  }, 
  {
    "city": "Minas", 
    "lat": "21.4894", 
    "lng": "-77.6050", 
    "country": "Cuba", 
    "iso2": "CU", 
    "admin_name": "Camagüey", 
    "capital": "minor", 
    "population": "", 
    "population_proper": ""
  }, 
  {
    "city": "Los Arabos", 
    "lat": "22.7400", 
    "lng": "-80.7161", 
    "country": "Cuba", 
    "iso2": "CU", 
    "admin_name": "Matanzas", 
    "capital": "minor", 
    "population": "", 
    "population_proper": ""
  }, 
  {
    "city": "Minas de Matahambre", 
    "lat": "22.5822", 
    "lng": "-83.9492", 
    "country": "Cuba", 
    "iso2": "CU", 
    "admin_name": "Pinar del Río", 
    "capital": "minor", 
    "population": "", 
    "population_proper": ""
  }, 
  {
    "city": "Jimaguayú", 
    "lat": "21.2667", 
    "lng": "-77.8303", 
    "country": "Cuba", 
    "iso2": "CU", 
    "admin_name": "Camagüey", 
    "capital": "minor", 
    "population": "", 
    "population_proper": ""
  }, 
  {
    "city": "Santa Cruz del Sur", 
    "lat": "20.7194", 
    "lng": "-77.9911", 
    "country": "Cuba", 
    "iso2": "CU", 
    "admin_name": "Camagüey", 
    "capital": "minor", 
    "population": "", 
    "population_proper": ""
  }, 
  {
    "city": "Calimete", 
    "lat": "22.5339", 
    "lng": "-80.9097", 
    "country": "Cuba", 
    "iso2": "CU", 
    "admin_name": "Matanzas", 
    "capital": "minor", 
    "population": "", 
    "population_proper": ""
  }, 
  {
    "city": "Corralillo", 
    "lat": "22.9856", 
    "lng": "-80.5831", 
    "country": "Cuba", 
    "iso2": "CU", 
    "admin_name": "Villa Clara", 
    "capital": "minor", 
    "population": "", 
    "population_proper": ""
  }, 
  {
    "city": "Palenque", 
    "lat": "20.3637", 
    "lng": "-74.9704", 
    "country": "Cuba", 
    "iso2": "CU", 
    "admin_name": "Guantánamo", 
    "capital": "minor", 
    "population": "", 
    "population_proper": ""
  }, 
  {
    "city": "Martí", 
    "lat": "22.9522", 
    "lng": "-80.9167", 
    "country": "Cuba", 
    "iso2": "CU", 
    "admin_name": "Matanzas", 
    "capital": "minor", 
    "population": "", 
    "population_proper": ""
  }, 
  {
    "city": "Esmeralda", 
    "lat": "21.8561", 
    "lng": "-78.1114", 
    "country": "Cuba", 
    "iso2": "CU", 
    "admin_name": "Camagüey", 
    "capital": "minor", 
    "population": "", 
    "population_proper": ""
  }, 
  {
    "city": "Bolivia", 
    "lat": "22.0750", 
    "lng": "-78.3503", 
    "country": "Cuba", 
    "iso2": "CU", 
    "admin_name": "Ciego de Ávila", 
    "capital": "minor", 
    "population": "", 
    "population_proper": ""
  }, 
  {
    "city": "Guáimaro", 
    "lat": "21.0589", 
    "lng": "-77.3478", 
    "country": "Cuba", 
    "iso2": "CU", 
    "admin_name": "Camagüey", 
    "capital": "minor", 
    "population": "", 
    "population_proper": ""
  }
]