[
  {
    "city": "Asmara", 
    "lat": "15.3333", 
    "lng": "38.9167", 
    "country": "Eritrea", 
    "iso2": "ER", 
    "admin_name": "Ma’ākel", 
    "capital": "primary", 
    "population": "963000", 
    "population_proper": "963000"
  }, 
  {
    "city": "Keren", 
    "lat": "15.6804", 
    "lng": "38.4500", 
    "country": "Eritrea", 
    "iso2": "ER", 
    "admin_name": "Ānseba", 
    "capital": "admin", 
    "population": "150000", 
    "population_proper": "146483"
  }, 
  {
    "city": "Assab", 
    "lat": "13.0078", 
    "lng": "42.7411", 
    "country": "Eritrea", 
    "iso2": "ER", 
    "admin_name": "Debubawī K’eyih Bahrī", 
    "capital": "admin", 
    "population": "74405", 
    "population_proper": "74405"
  }, 
  {
    "city": "Massawa", 
    "lat": "15.6000", 
    "lng": "39.4333", 
    "country": "Eritrea", 
    "iso2": "ER", 
    "admin_name": "Semēnawī K’eyih Bahrī", 
    "capital": "admin", 
    "population": "39758", 
    "population_proper": "39758"
  }, 
  {
    "city": "Mendefera", 
    "lat": "14.8833", 
    "lng": "38.8167", 
    "country": "Eritrea", 
    "iso2": "ER", 
    "admin_name": "Debub", 
    "capital": "admin", 
    "population": "28492", 
    "population_proper": "28492"
  }, 
  {
    "city": "Barentu", 
    "lat": "15.1058", 
    "lng": "37.5907", 
    "country": "Eritrea", 
    "iso2": "ER", 
    "admin_name": "Gash Barka", 
    "capital": "admin", 
    "population": "", 
    "population_proper": ""
  }
]