[
  {
    "city": "Tórshavn", 
    "lat": "62.0000", 
    "lng": "-6.7833", 
    "country": "Faroe Islands", 
    "iso2": "FO", 
    "admin_name": "", 
    "capital": "primary", 
    "population": "13326", 
    "population_proper": "13326"
  }, 
  {
    "city": "Klaksvík", 
    "lat": "62.2375", 
    "lng": "-6.5390", 
    "country": "Faroe Islands", 
    "iso2": "FO", 
    "admin_name": "", 
    "capital": "admin", 
    "population": "4664", 
    "population_proper": "4664"
  }, 
  {
    "city": "Hvalba", 
    "lat": "61.6000", 
    "lng": "-6.9556", 
    "country": "Faroe Islands", 
    "iso2": "FO", 
    "admin_name": "", 
    "capital": "admin", 
    "population": "713", 
    "population_proper": "713"
  }, 
  {
    "city": "Skopun", 
    "lat": "61.9125", 
    "lng": "-6.8719", 
    "country": "Faroe Islands", 
    "iso2": "FO", 
    "admin_name": "", 
    "capital": "admin", 
    "population": "446", 
    "population_proper": "446"
  }, 
  {
    "city": "Hvannasund", 
    "lat": "62.2833", 
    "lng": "-6.5167", 
    "country": "Faroe Islands", 
    "iso2": "FO", 
    "admin_name": "", 
    "capital": "admin", 
    "population": "414", 
    "population_proper": "414"
  }, 
  {
    "city": "Porkeri", 
    "lat": "61.4814", 
    "lng": "-6.7458", 
    "country": "Faroe Islands", 
    "iso2": "FO", 
    "admin_name": "", 
    "capital": "admin", 
    "population": "297", 
    "population_proper": "297"
  }, 
  {
    "city": "Fámjin", 
    "lat": "61.5264", 
    "lng": "-6.8769", 
    "country": "Faroe Islands", 
    "iso2": "FO", 
    "admin_name": "", 
    "capital": "admin", 
    "population": "83", 
    "population_proper": "83"
  }, 
  {
    "city": "Skarvanes", 
    "lat": "61.7931", 
    "lng": "-6.7369", 
    "country": "Faroe Islands", 
    "iso2": "FO", 
    "admin_name": "", 
    "capital": "", 
    "population": "9", 
    "population_proper": "9"
  }, 
  {
    "city": "Toftir", 
    "lat": "62.0978", 
    "lng": "-6.7369", 
    "country": "Faroe Islands", 
    "iso2": "FO", 
    "admin_name": "", 
    "capital": "admin", 
    "population": "", 
    "population_proper": ""
  }, 
  {
    "city": "Saltangará", 
    "lat": "62.1156", 
    "lng": "-6.7206", 
    "country": "Faroe Islands", 
    "iso2": "FO", 
    "admin_name": "", 
    "capital": "admin", 
    "population": "", 
    "population_proper": ""
  }, 
  {
    "city": "Strendur", 
    "lat": "62.1096", 
    "lng": "-6.7617", 
    "country": "Faroe Islands", 
    "iso2": "FO", 
    "admin_name": "", 
    "capital": "admin", 
    "population": "", 
    "population_proper": ""
  }, 
  {
    "city": "Tvøroyri", 
    "lat": "61.5544", 
    "lng": "-6.8063", 
    "country": "Faroe Islands", 
    "iso2": "FO", 
    "admin_name": "", 
    "capital": "admin", 
    "population": "", 
    "population_proper": ""
  }, 
  {
    "city": "Fuglafjørður", 
    "lat": "62.2448", 
    "lng": "-6.8150", 
    "country": "Faroe Islands", 
    "iso2": "FO", 
    "admin_name": "", 
    "capital": "admin", 
    "population": "", 
    "population_proper": ""
  }, 
  {
    "city": "Vágur", 
    "lat": "61.4733", 
    "lng": "-6.8175", 
    "country": "Faroe Islands", 
    "iso2": "FO", 
    "admin_name": "", 
    "capital": "admin", 
    "population": "", 
    "population_proper": ""
  }, 
  {
    "city": "Norðragøta", 
    "lat": "62.1990", 
    "lng": "-6.7432", 
    "country": "Faroe Islands", 
    "iso2": "FO", 
    "admin_name": "", 
    "capital": "admin", 
    "population": "", 
    "population_proper": ""
  }, 
  {
    "city": "Sørvágur", 
    "lat": "62.0717", 
    "lng": "-7.3066", 
    "country": "Faroe Islands", 
    "iso2": "FO", 
    "admin_name": "", 
    "capital": "admin", 
    "population": "", 
    "population_proper": ""
  }, 
  {
    "city": "Eiði", 
    "lat": "62.2995", 
    "lng": "-7.0924", 
    "country": "Faroe Islands", 
    "iso2": "FO", 
    "admin_name": "", 
    "capital": "admin", 
    "population": "", 
    "population_proper": ""
  }, 
  {
    "city": "Oyrarbakki", 
    "lat": "62.2079", 
    "lng": "-6.9997", 
    "country": "Faroe Islands", 
    "iso2": "FO", 
    "admin_name": "", 
    "capital": "admin", 
    "population": "", 
    "population_proper": ""
  }, 
  {
    "city": "Vestmanna", 
    "lat": "62.1548", 
    "lng": "-7.1690", 
    "country": "Faroe Islands", 
    "iso2": "FO", 
    "admin_name": "", 
    "capital": "admin", 
    "population": "", 
    "population_proper": ""
  }, 
  {
    "city": "Sumba", 
    "lat": "61.4055", 
    "lng": "-6.7090", 
    "country": "Faroe Islands", 
    "iso2": "FO", 
    "admin_name": "", 
    "capital": "admin", 
    "population": "", 
    "population_proper": ""
  }, 
  {
    "city": "Kvívík", 
    "lat": "62.1186", 
    "lng": "-7.0737", 
    "country": "Faroe Islands", 
    "iso2": "FO", 
    "admin_name": "", 
    "capital": "admin", 
    "population": "", 
    "population_proper": ""
  }, 
  {
    "city": "Sandavágur", 
    "lat": "62.0537", 
    "lng": "-7.1498", 
    "country": "Faroe Islands", 
    "iso2": "FO", 
    "admin_name": "", 
    "capital": "admin", 
    "population": "", 
    "population_proper": ""
  }, 
  {
    "city": "Hov", 
    "lat": "61.5068", 
    "lng": "-6.7599", 
    "country": "Faroe Islands", 
    "iso2": "FO", 
    "admin_name": "", 
    "capital": "admin", 
    "population": "", 
    "population_proper": ""
  }, 
  {
    "city": "Viðareiði", 
    "lat": "62.3600", 
    "lng": "-6.5313", 
    "country": "Faroe Islands", 
    "iso2": "FO", 
    "admin_name": "", 
    "capital": "admin", 
    "population": "", 
    "population_proper": ""
  }, 
  {
    "city": "Sandur", 
    "lat": "61.8344", 
    "lng": "-6.8171", 
    "country": "Faroe Islands", 
    "iso2": "FO", 
    "admin_name": "", 
    "capital": "admin", 
    "population": "", 
    "population_proper": ""
  }, 
  {
    "city": "Húsavík", 
    "lat": "61.8099", 
    "lng": "-6.6813", 
    "country": "Faroe Islands", 
    "iso2": "FO", 
    "admin_name": "", 
    "capital": "admin", 
    "population": "", 
    "population_proper": ""
  }, 
  {
    "city": "Skálavík", 
    "lat": "61.8314", 
    "lng": "-6.6623", 
    "country": "Faroe Islands", 
    "iso2": "FO", 
    "admin_name": "", 
    "capital": "admin", 
    "population": "", 
    "population_proper": ""
  }, 
  {
    "city": "Kunoy", 
    "lat": "62.2917", 
    "lng": "-6.6702", 
    "country": "Faroe Islands", 
    "iso2": "FO", 
    "admin_name": "", 
    "capital": "admin", 
    "population": "", 
    "population_proper": ""
  }, 
  {
    "city": "Kirkja", 
    "lat": "62.3263", 
    "lng": "-6.3238", 
    "country": "Faroe Islands", 
    "iso2": "FO", 
    "admin_name": "", 
    "capital": "admin", 
    "population": "", 
    "population_proper": ""
  }, 
  {
    "city": "Skúvoy", 
    "lat": "61.7710", 
    "lng": "-6.8050", 
    "country": "Faroe Islands", 
    "iso2": "FO", 
    "admin_name": "", 
    "capital": "admin", 
    "population": "", 
    "population_proper": ""
  }, 
  {
    "city": "Sandagerði", 
    "lat": "62.0013", 
    "lng": "-6.7714", 
    "country": "Faroe Islands", 
    "iso2": "FO", 
    "admin_name": "", 
    "capital": "", 
    "population": "", 
    "population_proper": ""
  }, 
  {
    "city": "Hoyvík", 
    "lat": "62.0219", 
    "lng": "-6.7511", 
    "country": "Faroe Islands", 
    "iso2": "FO", 
    "admin_name": "", 
    "capital": "", 
    "population": "", 
    "population_proper": ""
  }, 
  {
    "city": "Sund", 
    "lat": "62.0473", 
    "lng": "-6.8366", 
    "country": "Faroe Islands", 
    "iso2": "FO", 
    "admin_name": "", 
    "capital": "", 
    "population": "", 
    "population_proper": ""
  }, 
  {
    "city": "Saltnes", 
    "lat": "62.1030", 
    "lng": "-6.7395", 
    "country": "Faroe Islands", 
    "iso2": "FO", 
    "admin_name": "", 
    "capital": "", 
    "population": "", 
    "population_proper": ""
  }, 
  {
    "city": "Torkilsheyggjur", 
    "lat": "62.0845", 
    "lng": "-6.7342", 
    "country": "Faroe Islands", 
    "iso2": "FO", 
    "admin_name": "", 
    "capital": "", 
    "population": "", 
    "population_proper": ""
  }, 
  {
    "city": "Slættanes", 
    "lat": "62.1550", 
    "lng": "-7.2447", 
    "country": "Faroe Islands", 
    "iso2": "FO", 
    "admin_name": "", 
    "capital": "", 
    "population": "0", 
    "population_proper": "0"
  }, 
  {
    "city": "Skarð", 
    "lat": "62.3242", 
    "lng": "-6.6525", 
    "country": "Faroe Islands", 
    "iso2": "FO", 
    "admin_name": "", 
    "capital": "", 
    "population": "0", 
    "population_proper": "0"
  }, 
  {
    "city": "Víkarbyrgi", 
    "lat": "61.4428", 
    "lng": "-6.7244", 
    "country": "Faroe Islands", 
    "iso2": "FO", 
    "admin_name": "", 
    "capital": "", 
    "population": "0", 
    "population_proper": "0"
  }, 
  {
    "city": "Múli", 
    "lat": "62.3500", 
    "lng": "-6.5797", 
    "country": "Faroe Islands", 
    "iso2": "FO", 
    "admin_name": "", 
    "capital": "", 
    "population": "0", 
    "population_proper": "0"
  }, 
  {
    "city": "Hvítanes", 
    "lat": "62.0455", 
    "lng": "-6.7630", 
    "country": "Faroe Islands", 
    "iso2": "FO", 
    "admin_name": "", 
    "capital": "", 
    "population": "", 
    "population_proper": ""
  }, 
  {
    "city": "Argir", 
    "lat": "61.9960", 
    "lng": "-6.7715", 
    "country": "Faroe Islands", 
    "iso2": "FO", 
    "admin_name": "", 
    "capital": "", 
    "population": "", 
    "population_proper": ""
  }, 
  {
    "city": "Runavík", 
    "lat": "62.1167", 
    "lng": "-6.7167", 
    "country": "Faroe Islands", 
    "iso2": "FO", 
    "admin_name": "", 
    "capital": "", 
    "population": "", 
    "population_proper": ""
  }, 
  {
    "city": "Glyvrar", 
    "lat": "62.1247", 
    "lng": "-6.7215", 
    "country": "Faroe Islands", 
    "iso2": "FO", 
    "admin_name": "", 
    "capital": "", 
    "population": "", 
    "population_proper": ""
  }, 
  {
    "city": "Lambareiði", 
    "lat": "62.1333", 
    "lng": "-6.7167", 
    "country": "Faroe Islands", 
    "iso2": "FO", 
    "admin_name": "", 
    "capital": "", 
    "population": "", 
    "population_proper": ""
  }, 
  {
    "city": "Við Sjógv", 
    "lat": "62.1197", 
    "lng": "-6.7501", 
    "country": "Faroe Islands", 
    "iso2": "FO", 
    "admin_name": "", 
    "capital": "", 
    "population": "", 
    "population_proper": ""
  }, 
  {
    "city": "Sevlendi", 
    "lat": "62.1128", 
    "lng": "-6.7553", 
    "country": "Faroe Islands", 
    "iso2": "FO", 
    "admin_name": "", 
    "capital": "", 
    "population": "", 
    "population_proper": ""
  }, 
  {
    "city": "Heyggjur", 
    "lat": "62.1080", 
    "lng": "-6.7638", 
    "country": "Faroe Islands", 
    "iso2": "FO", 
    "admin_name": "", 
    "capital": "", 
    "population": "", 
    "population_proper": ""
  }, 
  {
    "city": "Vágsheygur", 
    "lat": "62.2213", 
    "lng": "-6.5694", 
    "country": "Faroe Islands", 
    "iso2": "FO", 
    "admin_name": "", 
    "capital": "", 
    "population": "", 
    "population_proper": ""
  }, 
  {
    "city": "Gerðar", 
    "lat": "62.2333", 
    "lng": "-6.5667", 
    "country": "Faroe Islands", 
    "iso2": "FO", 
    "admin_name": "", 
    "capital": "", 
    "population": "", 
    "population_proper": ""
  }, 
  {
    "city": "Myrkjanoyri", 
    "lat": "62.2291", 
    "lng": "-6.5772", 
    "country": "Faroe Islands", 
    "iso2": "FO", 
    "admin_name": "", 
    "capital": "", 
    "population": "", 
    "population_proper": ""
  }, 
  {
    "city": "Vágur", 
    "lat": "62.2240", 
    "lng": "-6.5863", 
    "country": "Faroe Islands", 
    "iso2": "FO", 
    "admin_name": "", 
    "capital": "", 
    "population": "", 
    "population_proper": ""
  }, 
  {
    "city": "Uppsalir", 
    "lat": "62.2220", 
    "lng": "-6.5842", 
    "country": "Faroe Islands", 
    "iso2": "FO", 
    "admin_name": "", 
    "capital": "", 
    "population": "", 
    "population_proper": ""
  }, 
  {
    "city": "Biskupsstøð", 
    "lat": "62.2270", 
    "lng": "-6.5768", 
    "country": "Faroe Islands", 
    "iso2": "FO", 
    "admin_name": "", 
    "capital": "", 
    "population": "", 
    "population_proper": ""
  }, 
  {
    "city": "Gerðar", 
    "lat": "62.1041", 
    "lng": "-6.7689", 
    "country": "Faroe Islands", 
    "iso2": "FO", 
    "admin_name": "", 
    "capital": "", 
    "population": "", 
    "population_proper": ""
  }, 
  {
    "city": "Innan Glyvur", 
    "lat": "62.1333", 
    "lng": "-6.7500", 
    "country": "Faroe Islands", 
    "iso2": "FO", 
    "admin_name": "", 
    "capital": "", 
    "population": "", 
    "population_proper": ""
  }, 
  {
    "city": "Norðoyri", 
    "lat": "62.2167", 
    "lng": "-6.5333", 
    "country": "Faroe Islands", 
    "iso2": "FO", 
    "admin_name": "", 
    "capital": "", 
    "population": "", 
    "population_proper": ""
  }, 
  {
    "city": "Nes", 
    "lat": "62.0820", 
    "lng": "-6.7272", 
    "country": "Faroe Islands", 
    "iso2": "FO", 
    "admin_name": "", 
    "capital": "", 
    "population": "", 
    "population_proper": ""
  }, 
  {
    "city": "Grógv", 
    "lat": "62.1806", 
    "lng": "-6.7508", 
    "country": "Faroe Islands", 
    "iso2": "FO", 
    "admin_name": "", 
    "capital": "", 
    "population": "", 
    "population_proper": ""
  }, 
  {
    "city": "Søldarfjørður", 
    "lat": "62.1632", 
    "lng": "-6.7543", 
    "country": "Faroe Islands", 
    "iso2": "FO", 
    "admin_name": "", 
    "capital": "", 
    "population": "", 
    "population_proper": ""
  }, 
  {
    "city": "Leirvík", 
    "lat": "62.2099", 
    "lng": "-6.6928", 
    "country": "Faroe Islands", 
    "iso2": "FO", 
    "admin_name": "", 
    "capital": "", 
    "population": "", 
    "population_proper": ""
  }, 
  {
    "city": "Við Garð", 
    "lat": "62.2094", 
    "lng": "-6.7208", 
    "country": "Faroe Islands", 
    "iso2": "FO", 
    "admin_name": "", 
    "capital": "", 
    "population": "", 
    "population_proper": ""
  }, 
  {
    "city": "Toftanes", 
    "lat": "62.2117", 
    "lng": "-6.7097", 
    "country": "Faroe Islands", 
    "iso2": "FO", 
    "admin_name": "", 
    "capital": "", 
    "population": "", 
    "population_proper": ""
  }, 
  {
    "city": "Skipanes", 
    "lat": "62.1721", 
    "lng": "-6.7650", 
    "country": "Faroe Islands", 
    "iso2": "FO", 
    "admin_name": "", 
    "capital": "", 
    "population": "", 
    "population_proper": ""
  }, 
  {
    "city": "Syðrugøta", 
    "lat": "62.1837", 
    "lng": "-6.7515", 
    "country": "Faroe Islands", 
    "iso2": "FO", 
    "admin_name": "", 
    "capital": "", 
    "population": "", 
    "population_proper": ""
  }, 
  {
    "city": "Við Kirkjar", 
    "lat": "62.0456", 
    "lng": "-7.1955", 
    "country": "Faroe Islands", 
    "iso2": "FO", 
    "admin_name": "", 
    "capital": "", 
    "population": "", 
    "population_proper": ""
  }, 
  {
    "city": "Miðvágur", 
    "lat": "62.0494", 
    "lng": "-7.1925", 
    "country": "Faroe Islands", 
    "iso2": "FO", 
    "admin_name": "", 
    "capital": "", 
    "population": "", 
    "population_proper": ""
  }, 
  {
    "city": "Jansagerði", 
    "lat": "62.0439", 
    "lng": "-7.1859", 
    "country": "Faroe Islands", 
    "iso2": "FO", 
    "admin_name": "", 
    "capital": "", 
    "population": "", 
    "population_proper": ""
  }, 
  {
    "city": "Ryggur", 
    "lat": "62.0507", 
    "lng": "-7.2038", 
    "country": "Faroe Islands", 
    "iso2": "FO", 
    "admin_name": "", 
    "capital": "", 
    "population": "", 
    "population_proper": ""
  }, 
  {
    "city": "Langasandur", 
    "lat": "62.1623", 
    "lng": "-6.7872", 
    "country": "Faroe Islands", 
    "iso2": "FO", 
    "admin_name": "", 
    "capital": "", 
    "population": "", 
    "population_proper": ""
  }, 
  {
    "city": "Skáli", 
    "lat": "62.1535", 
    "lng": "-6.7707", 
    "country": "Faroe Islands", 
    "iso2": "FO", 
    "admin_name": "", 
    "capital": "", 
    "population": "", 
    "population_proper": ""
  }, 
  {
    "city": "Í Fámara", 
    "lat": "61.4667", 
    "lng": "-6.8667", 
    "country": "Faroe Islands", 
    "iso2": "FO", 
    "admin_name": "", 
    "capital": "", 
    "population": "", 
    "population_proper": ""
  }, 
  {
    "city": "Kráir", 
    "lat": "61.4674", 
    "lng": "-6.8138", 
    "country": "Faroe Islands", 
    "iso2": "FO", 
    "admin_name": "", 
    "capital": "", 
    "population": "", 
    "population_proper": ""
  }, 
  {
    "city": "Krosslið", 
    "lat": "61.4738", 
    "lng": "-6.8038", 
    "country": "Faroe Islands", 
    "iso2": "FO", 
    "admin_name": "", 
    "capital": "", 
    "population": "", 
    "population_proper": ""
  }, 
  {
    "city": "Nes", 
    "lat": "61.4726", 
    "lng": "-6.7544", 
    "country": "Faroe Islands", 
    "iso2": "FO", 
    "admin_name": "", 
    "capital": "", 
    "population": "", 
    "population_proper": ""
  }, 
  {
    "city": "Punthavn", 
    "lat": "61.5500", 
    "lng": "-6.8167", 
    "country": "Faroe Islands", 
    "iso2": "FO", 
    "admin_name": "", 
    "capital": "", 
    "population": "", 
    "population_proper": ""
  }, 
  {
    "city": "Gøtueiði", 
    "lat": "62.1833", 
    "lng": "-6.7667", 
    "country": "Faroe Islands", 
    "iso2": "FO", 
    "admin_name": "", 
    "capital": "", 
    "population": "", 
    "population_proper": ""
  }, 
  {
    "city": "Gøta", 
    "lat": "62.1989", 
    "lng": "-6.7361", 
    "country": "Faroe Islands", 
    "iso2": "FO", 
    "admin_name": "", 
    "capital": "", 
    "population": "", 
    "population_proper": ""
  }, 
  {
    "city": "Norðskáli", 
    "lat": "62.2219", 
    "lng": "-7.0051", 
    "country": "Faroe Islands", 
    "iso2": "FO", 
    "admin_name": "", 
    "capital": "", 
    "population": "", 
    "population_proper": ""
  }, 
  {
    "city": "Æðuvík", 
    "lat": "62.0692", 
    "lng": "-6.6861", 
    "country": "Faroe Islands", 
    "iso2": "FO", 
    "admin_name": "", 
    "capital": "", 
    "population": "", 
    "population_proper": ""
  }, 
  {
    "city": "Ytri Skáli", 
    "lat": "62.1470", 
    "lng": "-6.7650", 
    "country": "Faroe Islands", 
    "iso2": "FO", 
    "admin_name": "", 
    "capital": "", 
    "population": "", 
    "population_proper": ""
  }, 
  {
    "city": "Í Botni", 
    "lat": "61.4833", 
    "lng": "-6.7833", 
    "country": "Faroe Islands", 
    "iso2": "FO", 
    "admin_name": "", 
    "capital": "", 
    "population": "", 
    "population_proper": ""
  }, 
  {
    "city": "Froðba", 
    "lat": "61.5438", 
    "lng": "-6.7703", 
    "country": "Faroe Islands", 
    "iso2": "FO", 
    "admin_name": "", 
    "capital": "", 
    "population": "", 
    "population_proper": ""
  }, 
  {
    "city": "Gøtugjógv", 
    "lat": "62.1920", 
    "lng": "-6.7434", 
    "country": "Faroe Islands", 
    "iso2": "FO", 
    "admin_name": "", 
    "capital": "", 
    "population": "", 
    "population_proper": ""
  }, 
  {
    "city": "Rituvík", 
    "lat": "62.1045", 
    "lng": "-6.6870", 
    "country": "Faroe Islands", 
    "iso2": "FO", 
    "admin_name": "", 
    "capital": "", 
    "population": "", 
    "population_proper": ""
  }, 
  {
    "city": "Ánir", 
    "lat": "62.2560", 
    "lng": "-6.5753", 
    "country": "Faroe Islands", 
    "iso2": "FO", 
    "admin_name": "", 
    "capital": "", 
    "population": "", 
    "population_proper": ""
  }, 
  {
    "city": "Hósvík", 
    "lat": "62.1500", 
    "lng": "-6.9333", 
    "country": "Faroe Islands", 
    "iso2": "FO", 
    "admin_name": "", 
    "capital": "", 
    "population": "", 
    "population_proper": ""
  }, 
  {
    "city": "Trongisvágur", 
    "lat": "61.5626", 
    "lng": "-6.8479", 
    "country": "Faroe Islands", 
    "iso2": "FO", 
    "admin_name": "", 
    "capital": "", 
    "population": "", 
    "population_proper": ""
  }, 
  {
    "city": "Hvítanes", 
    "lat": "61.5586", 
    "lng": "-6.8368", 
    "country": "Faroe Islands", 
    "iso2": "FO", 
    "admin_name": "", 
    "capital": "", 
    "population": "", 
    "population_proper": ""
  }, 
  {
    "city": "Lopra", 
    "lat": "61.4426", 
    "lng": "-6.7673", 
    "country": "Faroe Islands", 
    "iso2": "FO", 
    "admin_name": "", 
    "capital": "", 
    "population": "", 
    "population_proper": ""
  }, 
  {
    "city": "Streymnes", 
    "lat": "62.1924", 
    "lng": "-7.0159", 
    "country": "Faroe Islands", 
    "iso2": "FO", 
    "admin_name": "", 
    "capital": "", 
    "population": "", 
    "population_proper": ""
  }
]