[
  {
    "city": "Cayenne", 
    "lat": "4.9330", 
    "lng": "-52.3300", 
    "country": "French Guiana", 
    "iso2": "GF", 
    "admin_name": "", 
    "capital": "primary", 
    "population": "61550", 
    "population_proper": "52809"
  }, 
  {
    "city": "Saint-Laurent-du-Maroni", 
    "lat": "5.4976", 
    "lng": "-54.0325", 
    "country": "French Guiana", 
    "iso2": "GF", 
    "admin_name": "", 
    "capital": "minor", 
    "population": "24287", 
    "population_proper": "17414"
  }, 
  {
    "city": "Kourou", 
    "lat": "5.1600", 
    "lng": "-52.6499", 
    "country": "French Guiana", 
    "iso2": "GF", 
    "admin_name": "", 
    "capital": "minor", 
    "population": "24029", 
    "population_proper": "20822"
  }, 
  {
    "city": "Sinnamary", 
    "lat": "5.3800", 
    "lng": "-52.9600", 
    "country": "French Guiana", 
    "iso2": "GF", 
    "admin_name": "", 
    "capital": "minor", 
    "population": "3180", 
    "population_proper": "2383"
  }, 
  {
    "city": "Saint-Georges", 
    "lat": "3.9105", 
    "lng": "-51.8100", 
    "country": "French Guiana", 
    "iso2": "GF", 
    "admin_name": "", 
    "capital": "minor", 
    "population": "2742", 
    "population_proper": "374"
  }, 
  {
    "city": "Roura", 
    "lat": "4.7300", 
    "lng": "-52.3300", 
    "country": "French Guiana", 
    "iso2": "GF", 
    "admin_name": "", 
    "capital": "minor", 
    "population": "2229", 
    "population_proper": "1910"
  }, 
  {
    "city": "Iracoubo", 
    "lat": "5.4804", 
    "lng": "-53.2200", 
    "country": "French Guiana", 
    "iso2": "GF", 
    "admin_name": "", 
    "capital": "minor", 
    "population": "1536", 
    "population_proper": "226"
  }, 
  {
    "city": "Collery", 
    "lat": "4.9041", 
    "lng": "-52.3248", 
    "country": "French Guiana", 
    "iso2": "GF", 
    "admin_name": "", 
    "capital": "", 
    "population": "", 
    "population_proper": ""
  }, 
  {
    "city": "Eau Coulie", 
    "lat": "4.9333", 
    "lng": "-52.3167", 
    "country": "French Guiana", 
    "iso2": "GF", 
    "admin_name": "", 
    "capital": "", 
    "population": "", 
    "population_proper": ""
  }, 
  {
    "city": "Montabo", 
    "lat": "4.9460", 
    "lng": "-52.3053", 
    "country": "French Guiana", 
    "iso2": "GF", 
    "admin_name": "", 
    "capital": "", 
    "population": "", 
    "population_proper": ""
  }, 
  {
    "city": "Camp du Tigre", 
    "lat": "4.9130", 
    "lng": "-52.3085", 
    "country": "French Guiana", 
    "iso2": "GF", 
    "admin_name": "", 
    "capital": "", 
    "population": "", 
    "population_proper": ""
  }, 
  {
    "city": "Almaric", 
    "lat": "4.9279", 
    "lng": "-52.2826", 
    "country": "French Guiana", 
    "iso2": "GF", 
    "admin_name": "", 
    "capital": "", 
    "population": "", 
    "population_proper": ""
  }, 
  {
    "city": "Saint-Martin", 
    "lat": "4.9235", 
    "lng": "-52.2870", 
    "country": "French Guiana", 
    "iso2": "GF", 
    "admin_name": "", 
    "capital": "", 
    "population": "", 
    "population_proper": ""
  }, 
  {
    "city": "Cogneau-la Mirande", 
    "lat": "4.8839", 
    "lng": "-52.3192", 
    "country": "French Guiana", 
    "iso2": "GF", 
    "admin_name": "", 
    "capital": "", 
    "population": "", 
    "population_proper": ""
  }, 
  {
    "city": "Combo", 
    "lat": "4.8834", 
    "lng": "-52.3177", 
    "country": "French Guiana", 
    "iso2": "GF", 
    "admin_name": "", 
    "capital": "", 
    "population": "", 
    "population_proper": ""
  }, 
  {
    "city": "Morne Coco", 
    "lat": "4.8983", 
    "lng": "-52.2772", 
    "country": "French Guiana", 
    "iso2": "GF", 
    "admin_name": "", 
    "capital": "", 
    "population": "", 
    "population_proper": ""
  }, 
  {
    "city": "Camp de Rémire", 
    "lat": "4.8970", 
    "lng": "-52.2630", 
    "country": "French Guiana", 
    "iso2": "GF", 
    "admin_name": "", 
    "capital": "", 
    "population": "", 
    "population_proper": ""
  }, 
  {
    "city": "Dégrad des Cannes", 
    "lat": "4.8564", 
    "lng": "-52.2748", 
    "country": "French Guiana", 
    "iso2": "GF", 
    "admin_name": "", 
    "capital": "", 
    "population": "", 
    "population_proper": ""
  }, 
  {
    "city": "Cabassou", 
    "lat": "4.8871", 
    "lng": "-52.3001", 
    "country": "French Guiana", 
    "iso2": "GF", 
    "admin_name": "", 
    "capital": "", 
    "population": "", 
    "population_proper": ""
  }, 
  {
    "city": "Raban", 
    "lat": "4.9077", 
    "lng": "-52.2980", 
    "country": "French Guiana", 
    "iso2": "GF", 
    "admin_name": "", 
    "capital": "", 
    "population": "", 
    "population_proper": ""
  }, 
  {
    "city": "Montravel", 
    "lat": "4.9091", 
    "lng": "-52.2668", 
    "country": "French Guiana", 
    "iso2": "GF", 
    "admin_name": "", 
    "capital": "", 
    "population": "", 
    "population_proper": ""
  }, 
  {
    "city": "Rémire", 
    "lat": "4.8858", 
    "lng": "-52.2786", 
    "country": "French Guiana", 
    "iso2": "GF", 
    "admin_name": "", 
    "capital": "minor", 
    "population": "", 
    "population_proper": ""
  }, 
  {
    "city": "Réséda", 
    "lat": "4.8759", 
    "lng": "-52.2785", 
    "country": "French Guiana", 
    "iso2": "GF", 
    "admin_name": "", 
    "capital": "", 
    "population": "", 
    "population_proper": ""
  }, 
  {
    "city": "Poupon", 
    "lat": "4.9224", 
    "lng": "-52.2784", 
    "country": "French Guiana", 
    "iso2": "GF", 
    "admin_name": "", 
    "capital": "", 
    "population": "", 
    "population_proper": ""
  }, 
  {
    "city": "Ceïde", 
    "lat": "4.8976", 
    "lng": "-52.2615", 
    "country": "French Guiana", 
    "iso2": "GF", 
    "admin_name": "", 
    "capital": "", 
    "population": "", 
    "population_proper": ""
  }, 
  {
    "city": "Beau Soleil", 
    "lat": "4.8666", 
    "lng": "-52.2522", 
    "country": "French Guiana", 
    "iso2": "GF", 
    "admin_name": "", 
    "capital": "", 
    "population": "", 
    "population_proper": ""
  }, 
  {
    "city": "Le Grand Beauregard", 
    "lat": "4.8917", 
    "lng": "-52.2796", 
    "country": "French Guiana", 
    "iso2": "GF", 
    "admin_name": "", 
    "capital": "", 
    "population": "", 
    "population_proper": ""
  }, 
  {
    "city": "Pascaud", 
    "lat": "4.8651", 
    "lng": "-52.2735", 
    "country": "French Guiana", 
    "iso2": "GF", 
    "admin_name": "", 
    "capital": "", 
    "population": "", 
    "population_proper": ""
  }, 
  {
    "city": "Poncel", 
    "lat": "4.9010", 
    "lng": "-52.2990", 
    "country": "French Guiana", 
    "iso2": "GF", 
    "admin_name": "", 
    "capital": "", 
    "population": "", 
    "population_proper": ""
  }, 
  {
    "city": "Les Âmes Claires", 
    "lat": "4.9124", 
    "lng": "-52.2840", 
    "country": "French Guiana", 
    "iso2": "GF", 
    "admin_name": "", 
    "capital": "", 
    "population": "", 
    "population_proper": ""
  }, 
  {
    "city": "Le Moulin à Vent", 
    "lat": "4.9031", 
    "lng": "-52.2729", 
    "country": "French Guiana", 
    "iso2": "GF", 
    "admin_name": "", 
    "capital": "", 
    "population": "", 
    "population_proper": ""
  }, 
  {
    "city": "Montjoly", 
    "lat": "4.9148", 
    "lng": "-52.2694", 
    "country": "French Guiana", 
    "iso2": "GF", 
    "admin_name": "", 
    "capital": "", 
    "population": "", 
    "population_proper": ""
  }, 
  {
    "city": "Zénith", 
    "lat": "4.9008", 
    "lng": "-52.3371", 
    "country": "French Guiana", 
    "iso2": "GF", 
    "admin_name": "", 
    "capital": "", 
    "population": "", 
    "population_proper": ""
  }, 
  {
    "city": "Aquavilla", 
    "lat": "4.8769", 
    "lng": "-52.3165", 
    "country": "French Guiana", 
    "iso2": "GF", 
    "admin_name": "", 
    "capital": "", 
    "population": "", 
    "population_proper": ""
  }, 
  {
    "city": "Les Îlets de Macrabo", 
    "lat": "4.7994", 
    "lng": "-52.3523", 
    "country": "French Guiana", 
    "iso2": "GF", 
    "admin_name": "", 
    "capital": "", 
    "population": "", 
    "population_proper": ""
  }, 
  {
    "city": "Concorde", 
    "lat": "4.8364", 
    "lng": "-52.3491", 
    "country": "French Guiana", 
    "iso2": "GF", 
    "admin_name": "", 
    "capital": "", 
    "population": "", 
    "population_proper": ""
  }, 
  {
    "city": "La Désirée", 
    "lat": "4.8489", 
    "lng": "-52.3395", 
    "country": "French Guiana", 
    "iso2": "GF", 
    "admin_name": "", 
    "capital": "", 
    "population": "", 
    "population_proper": ""
  }, 
  {
    "city": "Lotissement Yarde", 
    "lat": "4.8266", 
    "lng": "-52.3146", 
    "country": "French Guiana", 
    "iso2": "GF", 
    "admin_name": "", 
    "capital": "", 
    "population": "", 
    "population_proper": ""
  }, 
  {
    "city": "Le Califourchon", 
    "lat": "4.8392", 
    "lng": "-52.3409", 
    "country": "French Guiana", 
    "iso2": "GF", 
    "admin_name": "", 
    "capital": "", 
    "population": "", 
    "population_proper": ""
  }, 
  {
    "city": "Le Quartorzième", 
    "lat": "4.8380", 
    "lng": "-52.3444", 
    "country": "French Guiana", 
    "iso2": "GF", 
    "admin_name": "", 
    "capital": "", 
    "population": "", 
    "population_proper": ""
  }, 
  {
    "city": "Paramana", 
    "lat": "4.8193", 
    "lng": "-52.3400", 
    "country": "French Guiana", 
    "iso2": "GF", 
    "admin_name": "", 
    "capital": "", 
    "population": "", 
    "population_proper": ""
  }, 
  {
    "city": "Matoury", 
    "lat": "4.8492", 
    "lng": "-52.3235", 
    "country": "French Guiana", 
    "iso2": "GF", 
    "admin_name": "", 
    "capital": "minor", 
    "population": "", 
    "population_proper": ""
  }, 
  {
    "city": "La Mirande", 
    "lat": "4.8750", 
    "lng": "-52.3377", 
    "country": "French Guiana", 
    "iso2": "GF", 
    "admin_name": "", 
    "capital": "", 
    "population": "", 
    "population_proper": ""
  }, 
  {
    "city": "Lotissement Gay", 
    "lat": "4.8805", 
    "lng": "-52.3635", 
    "country": "French Guiana", 
    "iso2": "GF", 
    "admin_name": "", 
    "capital": "", 
    "population": "", 
    "population_proper": ""
  }, 
  {
    "city": "Domaine de Stoupan", 
    "lat": "4.7755", 
    "lng": "-52.3350", 
    "country": "French Guiana", 
    "iso2": "GF", 
    "admin_name": "", 
    "capital": "", 
    "population": "", 
    "population_proper": ""
  }, 
  {
    "city": "Cogneau", 
    "lat": "4.8699", 
    "lng": "-52.3235", 
    "country": "French Guiana", 
    "iso2": "GF", 
    "admin_name": "", 
    "capital": "", 
    "population": "", 
    "population_proper": ""
  }, 
  {
    "city": "La Persévérance", 
    "lat": "4.8994", 
    "lng": "-52.3483", 
    "country": "French Guiana", 
    "iso2": "GF", 
    "admin_name": "", 
    "capital": "", 
    "population": "", 
    "population_proper": ""
  }, 
  {
    "city": "Samuel", 
    "lat": "4.8798", 
    "lng": "-52.3312", 
    "country": "French Guiana", 
    "iso2": "GF", 
    "admin_name": "", 
    "capital": "", 
    "population": "", 
    "population_proper": ""
  }, 
  {
    "city": "Maya", 
    "lat": "4.8829", 
    "lng": "-52.3274", 
    "country": "French Guiana", 
    "iso2": "GF", 
    "admin_name": "", 
    "capital": "", 
    "population": "", 
    "population_proper": ""
  }, 
  {
    "city": "Le Dix-Septième", 
    "lat": "4.8333", 
    "lng": "-52.3500", 
    "country": "French Guiana", 
    "iso2": "GF", 
    "admin_name": "", 
    "capital": "", 
    "population": "", 
    "population_proper": ""
  }, 
  {
    "city": "Pinot", 
    "lat": "4.7890", 
    "lng": "-52.3308", 
    "country": "French Guiana", 
    "iso2": "GF", 
    "admin_name": "", 
    "capital": "", 
    "population": "", 
    "population_proper": ""
  }, 
  {
    "city": "Sainte-Rose de Lima", 
    "lat": "4.8248", 
    "lng": "-52.3385", 
    "country": "French Guiana", 
    "iso2": "GF", 
    "admin_name": "", 
    "capital": "", 
    "population": "", 
    "population_proper": ""
  }, 
  {
    "city": "La Valère", 
    "lat": "4.8336", 
    "lng": "-52.3233", 
    "country": "French Guiana", 
    "iso2": "GF", 
    "admin_name": "", 
    "capital": "", 
    "population": "", 
    "population_proper": ""
  }, 
  {
    "city": "Cogneau-Ouest", 
    "lat": "4.8771", 
    "lng": "-52.3310", 
    "country": "French Guiana", 
    "iso2": "GF", 
    "admin_name": "", 
    "capital": "", 
    "population": "", 
    "population_proper": ""
  }, 
  {
    "city": "Balata-Est", 
    "lat": "4.8861", 
    "lng": "-52.3332", 
    "country": "French Guiana", 
    "iso2": "GF", 
    "admin_name": "", 
    "capital": "", 
    "population": "", 
    "population_proper": ""
  }, 
  {
    "city": "Macrabo", 
    "lat": "4.7921", 
    "lng": "-52.3543", 
    "country": "French Guiana", 
    "iso2": "GF", 
    "admin_name": "", 
    "capital": "", 
    "population": "", 
    "population_proper": ""
  }, 
  {
    "city": "Résidence Cogneau-Larivot", 
    "lat": "4.8938", 
    "lng": "-52.3412", 
    "country": "French Guiana", 
    "iso2": "GF", 
    "admin_name": "", 
    "capital": "", 
    "population": "", 
    "population_proper": ""
  }, 
  {
    "city": "La Levée", 
    "lat": "4.8319", 
    "lng": "-52.3083", 
    "country": "French Guiana", 
    "iso2": "GF", 
    "admin_name": "", 
    "capital": "", 
    "population": "", 
    "population_proper": ""
  }, 
  {
    "city": "Balata-Ouest", 
    "lat": "4.8867", 
    "lng": "-52.3419", 
    "country": "French Guiana", 
    "iso2": "GF", 
    "admin_name": "", 
    "capital": "", 
    "population": "", 
    "population_proper": ""
  }, 
  {
    "city": "Matoupan", 
    "lat": "4.7662", 
    "lng": "-52.3310", 
    "country": "French Guiana", 
    "iso2": "GF", 
    "admin_name": "", 
    "capital": "", 
    "population": "", 
    "population_proper": ""
  }, 
  {
    "city": "Austerlitz", 
    "lat": "4.8747", 
    "lng": "-52.3676", 
    "country": "French Guiana", 
    "iso2": "GF", 
    "admin_name": "", 
    "capital": "", 
    "population": "", 
    "population_proper": ""
  }, 
  {
    "city": "Mogès", 
    "lat": "4.7932", 
    "lng": "-52.3415", 
    "country": "French Guiana", 
    "iso2": "GF", 
    "admin_name": "", 
    "capital": "", 
    "population": "", 
    "population_proper": ""
  }, 
  {
    "city": "Village Indien Arawak", 
    "lat": "4.8996", 
    "lng": "-52.3424", 
    "country": "French Guiana", 
    "iso2": "GF", 
    "admin_name": "", 
    "capital": "", 
    "population": "", 
    "population_proper": ""
  }, 
  {
    "city": "Sainte-Thérèse", 
    "lat": "4.7630", 
    "lng": "-52.3270", 
    "country": "French Guiana", 
    "iso2": "GF", 
    "admin_name": "", 
    "capital": "", 
    "population": "", 
    "population_proper": ""
  }, 
  {
    "city": "Jean-Marie", 
    "lat": "4.8853", 
    "lng": "-52.3341", 
    "country": "French Guiana", 
    "iso2": "GF", 
    "admin_name": "", 
    "capital": "", 
    "population": "", 
    "population_proper": ""
  }, 
  {
    "city": "Stoupan", 
    "lat": "4.7791", 
    "lng": "-52.3435", 
    "country": "French Guiana", 
    "iso2": "GF", 
    "admin_name": "", 
    "capital": "", 
    "population": "", 
    "population_proper": ""
  }, 
  {
    "city": "Îlets Mogès", 
    "lat": "4.7944", 
    "lng": "-52.3311", 
    "country": "French Guiana", 
    "iso2": "GF", 
    "admin_name": "", 
    "capital": "", 
    "population": "", 
    "population_proper": ""
  }, 
  {
    "city": "Cogneau-Est", 
    "lat": "4.8772", 
    "lng": "-52.3233", 
    "country": "French Guiana", 
    "iso2": "GF", 
    "admin_name": "", 
    "capital": "", 
    "population": "", 
    "population_proper": ""
  }, 
  {
    "city": "La Chaumière", 
    "lat": "4.8844", 
    "lng": "-52.3587", 
    "country": "French Guiana", 
    "iso2": "GF", 
    "admin_name": "", 
    "capital": "", 
    "population": "", 
    "population_proper": ""
  }, 
  {
    "city": "Village Indien Sainte-Rose de Lima", 
    "lat": "4.8327", 
    "lng": "-52.3370", 
    "country": "French Guiana", 
    "iso2": "GF", 
    "admin_name": "", 
    "capital": "", 
    "population": "", 
    "population_proper": ""
  }, 
  {
    "city": "Les Loussaïs", 
    "lat": "4.8869", 
    "lng": "-52.3493", 
    "country": "French Guiana", 
    "iso2": "GF", 
    "admin_name": "", 
    "capital": "", 
    "population": "", 
    "population_proper": ""
  }, 
  {
    "city": "La Brande", 
    "lat": "4.8595", 
    "lng": "-52.3182", 
    "country": "French Guiana", 
    "iso2": "GF", 
    "admin_name": "", 
    "capital": "", 
    "population": "", 
    "population_proper": ""
  }, 
  {
    "city": "Tonate", 
    "lat": "5.0124", 
    "lng": "-52.4737", 
    "country": "French Guiana", 
    "iso2": "GF", 
    "admin_name": "", 
    "capital": "minor", 
    "population": "", 
    "population_proper": ""
  }, 
  {
    "city": "Montsinéry", 
    "lat": "4.8919", 
    "lng": "-52.4938", 
    "country": "French Guiana", 
    "iso2": "GF", 
    "admin_name": "", 
    "capital": "minor", 
    "population": "", 
    "population_proper": ""
  }, 
  {
    "city": "Mana", 
    "lat": "5.6691", 
    "lng": "-53.7790", 
    "country": "French Guiana", 
    "iso2": "GF", 
    "admin_name": "", 
    "capital": "minor", 
    "population": "", 
    "population_proper": ""
  }, 
  {
    "city": "Maripasoula", 
    "lat": "3.6416", 
    "lng": "-54.0317", 
    "country": "French Guiana", 
    "iso2": "GF", 
    "admin_name": "", 
    "capital": "minor", 
    "population": "", 
    "population_proper": ""
  }, 
  {
    "city": "Régina", 
    "lat": "4.3130", 
    "lng": "-52.1308", 
    "country": "French Guiana", 
    "iso2": "GF", 
    "admin_name": "", 
    "capital": "minor", 
    "population": "", 
    "population_proper": ""
  }, 
  {
    "city": "Le Larivot", 
    "lat": "4.9025", 
    "lng": "-52.3591", 
    "country": "French Guiana", 
    "iso2": "GF", 
    "admin_name": "", 
    "capital": "", 
    "population": "", 
    "population_proper": ""
  }, 
  {
    "city": "Belle Humeur", 
    "lat": "4.9166", 
    "lng": "-52.3791", 
    "country": "French Guiana", 
    "iso2": "GF", 
    "admin_name": "", 
    "capital": "", 
    "population": "", 
    "population_proper": ""
  }, 
  {
    "city": "Boudet", 
    "lat": "4.9276", 
    "lng": "-52.4444", 
    "country": "French Guiana", 
    "iso2": "GF", 
    "admin_name": "", 
    "capital": "", 
    "population": "", 
    "population_proper": ""
  }, 
  {
    "city": "Farnous", 
    "lat": "4.9481", 
    "lng": "-52.4227", 
    "country": "French Guiana", 
    "iso2": "GF", 
    "admin_name": "", 
    "capital": "", 
    "population": "", 
    "population_proper": ""
  }, 
  {
    "city": "La Dame Blanche", 
    "lat": "4.9194", 
    "lng": "-52.3662", 
    "country": "French Guiana", 
    "iso2": "GF", 
    "admin_name": "", 
    "capital": "", 
    "population": "", 
    "population_proper": ""
  }, 
  {
    "city": "Soula", 
    "lat": "4.9306", 
    "lng": "-52.4079", 
    "country": "French Guiana", 
    "iso2": "GF", 
    "admin_name": "", 
    "capital": "", 
    "population": "", 
    "population_proper": ""
  }, 
  {
    "city": "Domaine de Soula", 
    "lat": "4.9261", 
    "lng": "-52.4014", 
    "country": "French Guiana", 
    "iso2": "GF", 
    "admin_name": "", 
    "capital": "", 
    "population": "", 
    "population_proper": ""
  }, 
  {
    "city": "La Marguerite", 
    "lat": "4.9959", 
    "lng": "-52.4511", 
    "country": "French Guiana", 
    "iso2": "GF", 
    "admin_name": "", 
    "capital": "", 
    "population": "", 
    "population_proper": ""
  }, 
  {
    "city": "Macouria", 
    "lat": "5.0167", 
    "lng": "-52.4833", 
    "country": "French Guiana", 
    "iso2": "GF", 
    "admin_name": "", 
    "capital": "", 
    "population": "", 
    "population_proper": ""
  }, 
  {
    "city": "Macouria", 
    "lat": "4.9143", 
    "lng": "-52.3642", 
    "country": "French Guiana", 
    "iso2": "GF", 
    "admin_name": "", 
    "capital": "", 
    "population": "", 
    "population_proper": ""
  }, 
  {
    "city": "Préfontaine", 
    "lat": "4.9770", 
    "lng": "-52.4987", 
    "country": "French Guiana", 
    "iso2": "GF", 
    "admin_name": "", 
    "capital": "", 
    "population": "", 
    "population_proper": ""
  }, 
  {
    "city": "Trois Rois", 
    "lat": "4.9482", 
    "lng": "-52.5310", 
    "country": "French Guiana", 
    "iso2": "GF", 
    "admin_name": "", 
    "capital": "", 
    "population": "", 
    "population_proper": ""
  }, 
  {
    "city": "Calumet", 
    "lat": "4.9656", 
    "lng": "-52.5341", 
    "country": "French Guiana", 
    "iso2": "GF", 
    "admin_name": "", 
    "capital": "", 
    "population": "", 
    "population_proper": ""
  }, 
  {
    "city": "Bananes", 
    "lat": "4.9747", 
    "lng": "-52.4466", 
    "country": "French Guiana", 
    "iso2": "GF", 
    "admin_name": "", 
    "capital": "", 
    "population": "", 
    "population_proper": ""
  }, 
  {
    "city": "Les Jardins de Sainte-Agathe", 
    "lat": "5.0011", 
    "lng": "-52.4716", 
    "country": "French Guiana", 
    "iso2": "GF", 
    "admin_name": "", 
    "capital": "", 
    "population": "", 
    "population_proper": ""
  }, 
  {
    "city": "La Césarée", 
    "lat": "5.0213", 
    "lng": "-52.5250", 
    "country": "French Guiana", 
    "iso2": "GF", 
    "admin_name": "", 
    "capital": "", 
    "population": "", 
    "population_proper": ""
  }, 
  {
    "city": "La Bordelaise", 
    "lat": "4.9593", 
    "lng": "-52.4757", 
    "country": "French Guiana", 
    "iso2": "GF", 
    "admin_name": "", 
    "capital": "", 
    "population": "", 
    "population_proper": ""
  }, 
  {
    "city": "Lotissement Maillard", 
    "lat": "4.9708", 
    "lng": "-52.4419", 
    "country": "French Guiana", 
    "iso2": "GF", 
    "admin_name": "", 
    "capital": "", 
    "population": "", 
    "population_proper": ""
  }, 
  {
    "city": "Fazendinha", 
    "lat": "4.9692", 
    "lng": "-52.4759", 
    "country": "French Guiana", 
    "iso2": "GF", 
    "admin_name": "", 
    "capital": "", 
    "population": "", 
    "population_proper": ""
  }, 
  {
    "city": "Caussade", 
    "lat": "5.0700", 
    "lng": "-52.5914", 
    "country": "French Guiana", 
    "iso2": "GF", 
    "admin_name": "", 
    "capital": "", 
    "population": "", 
    "population_proper": ""
  }, 
  {
    "city": "Sablance", 
    "lat": "4.9415", 
    "lng": "-52.4042", 
    "country": "French Guiana", 
    "iso2": "GF", 
    "admin_name": "", 
    "capital": "", 
    "population": "", 
    "population_proper": ""
  }, 
  {
    "city": "Matiti", 
    "lat": "5.0331", 
    "lng": "-52.5742", 
    "country": "French Guiana", 
    "iso2": "GF", 
    "admin_name": "", 
    "capital": "", 
    "population": "", 
    "population_proper": ""
  }, 
  {
    "city": "La Colline Verte", 
    "lat": "4.9197", 
    "lng": "-52.5376", 
    "country": "French Guiana", 
    "iso2": "GF", 
    "admin_name": "", 
    "capital": "", 
    "population": "", 
    "population_proper": ""
  }
]