[
  {
    "city": "Bordeaux", 
    "lat": "49.4897", 
    "lng": "-2.5094", 
    "country": "Guernsey", 
    "iso2": "GG", 
    "admin_name": "", 
    "capital": "", 
    "population": "", 
    "population_proper": ""
  }, 
  {
    "city": "Vingtaine de l’Epine", 
    "lat": "49.4794", 
    "lng": "-2.5711", 
    "country": "Guernsey", 
    "iso2": "GG", 
    "admin_name": "", 
    "capital": "", 
    "population": "", 
    "population_proper": ""
  }, 
  {
    "city": "Le Bordage", 
    "lat": "49.4286", 
    "lng": "-2.5894", 
    "country": "Guernsey", 
    "iso2": "GG", 
    "admin_name": "", 
    "capital": "", 
    "population": "", 
    "population_proper": ""
  }, 
  {
    "city": "Les Adams", 
    "lat": "49.4536", 
    "lng": "-2.6461", 
    "country": "Guernsey", 
    "iso2": "GG", 
    "admin_name": "", 
    "capital": "", 
    "population": "", 
    "population_proper": ""
  }, 
  {
    "city": "Saint George", 
    "lat": "49.4656", 
    "lng": "-2.5894", 
    "country": "Guernsey", 
    "iso2": "GG", 
    "admin_name": "", 
    "capital": "", 
    "population": "", 
    "population_proper": ""
  }, 
  {
    "city": "Pleinmont", 
    "lat": "49.4319", 
    "lng": "-2.6672", 
    "country": "Guernsey", 
    "iso2": "GG", 
    "admin_name": "", 
    "capital": "", 
    "population": "", 
    "population_proper": ""
  }, 
  {
    "city": "L’Eclet", 
    "lat": "49.4428", 
    "lng": "-2.6319", 
    "country": "Guernsey", 
    "iso2": "GG", 
    "admin_name": "", 
    "capital": "", 
    "population": "", 
    "population_proper": ""
  }, 
  {
    "city": "Le Bouillon", 
    "lat": "49.4414", 
    "lng": "-2.5908", 
    "country": "Guernsey", 
    "iso2": "GG", 
    "admin_name": "", 
    "capital": "", 
    "population": "", 
    "population_proper": ""
  }, 
  {
    "city": "Girouette", 
    "lat": "49.4544", 
    "lng": "-2.6336", 
    "country": "Guernsey", 
    "iso2": "GG", 
    "admin_name": "", 
    "capital": "", 
    "population": "", 
    "population_proper": ""
  }, 
  {
    "city": "Fontenelle", 
    "lat": "49.5017", 
    "lng": "-2.5150", 
    "country": "Guernsey", 
    "iso2": "GG", 
    "admin_name": "", 
    "capital": "", 
    "population": "", 
    "population_proper": ""
  }, 
  {
    "city": "Les Vinaires", 
    "lat": "49.4411", 
    "lng": "-2.6347", 
    "country": "Guernsey", 
    "iso2": "GG", 
    "admin_name": "", 
    "capital": "", 
    "population": "", 
    "population_proper": ""
  }, 
  {
    "city": "La Garenne", 
    "lat": "49.4944", 
    "lng": "-2.5400", 
    "country": "Guernsey", 
    "iso2": "GG", 
    "admin_name": "", 
    "capital": "", 
    "population": "", 
    "population_proper": ""
  }, 
  {
    "city": "L’Islet", 
    "lat": "49.4878", 
    "lng": "-2.5450", 
    "country": "Guernsey", 
    "iso2": "GG", 
    "admin_name": "", 
    "capital": "", 
    "population": "", 
    "population_proper": ""
  }, 
  {
    "city": "Les Arquets", 
    "lat": "49.4425", 
    "lng": "-2.6433", 
    "country": "Guernsey", 
    "iso2": "GG", 
    "admin_name": "", 
    "capital": "", 
    "population": "", 
    "population_proper": ""
  }, 
  {
    "city": "La Ramée", 
    "lat": "49.4714", 
    "lng": "-2.5561", 
    "country": "Guernsey", 
    "iso2": "GG", 
    "admin_name": "", 
    "capital": "", 
    "population": "", 
    "population_proper": ""
  }, 
  {
    "city": "Les Hautgards", 
    "lat": "49.4944", 
    "lng": "-2.5250", 
    "country": "Guernsey", 
    "iso2": "GG", 
    "admin_name": "", 
    "capital": "", 
    "population": "", 
    "population_proper": ""
  }, 
  {
    "city": "Beaucamps", 
    "lat": "49.4622", 
    "lng": "-2.5803", 
    "country": "Guernsey", 
    "iso2": "GG", 
    "admin_name": "", 
    "capital": "", 
    "population": "", 
    "population_proper": ""
  }, 
  {
    "city": "Les Nouettes", 
    "lat": "49.4311", 
    "lng": "-2.6061", 
    "country": "Guernsey", 
    "iso2": "GG", 
    "admin_name": "", 
    "capital": "", 
    "population": "", 
    "population_proper": ""
  }, 
  {
    "city": "Le Pont", 
    "lat": "49.4333", 
    "lng": "-2.6264", 
    "country": "Guernsey", 
    "iso2": "GG", 
    "admin_name": "", 
    "capital": "", 
    "population": "", 
    "population_proper": ""
  }, 
  {
    "city": "Les Buttes", 
    "lat": "49.4353", 
    "lng": "-2.6269", 
    "country": "Guernsey", 
    "iso2": "GG", 
    "admin_name": "", 
    "capital": "", 
    "population": "", 
    "population_proper": ""
  }, 
  {
    "city": "Mont Saint", 
    "lat": "49.4569", 
    "lng": "-2.6236", 
    "country": "Guernsey", 
    "iso2": "GG", 
    "admin_name": "", 
    "capital": "", 
    "population": "", 
    "population_proper": ""
  }, 
  {
    "city": "Bouet", 
    "lat": "49.4681", 
    "lng": "-2.5411", 
    "country": "Guernsey", 
    "iso2": "GG", 
    "admin_name": "", 
    "capital": "", 
    "population": "", 
    "population_proper": ""
  }, 
  {
    "city": "Rousse", 
    "lat": "49.4969", 
    "lng": "-2.5550", 
    "country": "Guernsey", 
    "iso2": "GG", 
    "admin_name": "", 
    "capital": "", 
    "population": "", 
    "population_proper": ""
  }, 
  {
    "city": "Carmel", 
    "lat": "49.4400", 
    "lng": "-2.5597", 
    "country": "Guernsey", 
    "iso2": "GG", 
    "admin_name": "", 
    "capital": "", 
    "population": "", 
    "population_proper": ""
  }, 
  {
    "city": "Braeside", 
    "lat": "49.4858", 
    "lng": "-2.5444", 
    "country": "Guernsey", 
    "iso2": "GG", 
    "admin_name": "", 
    "capital": "", 
    "population": "", 
    "population_proper": ""
  }, 
  {
    "city": "Le Bigard", 
    "lat": "49.4247", 
    "lng": "-2.6053", 
    "country": "Guernsey", 
    "iso2": "GG", 
    "admin_name": "", 
    "capital": "", 
    "population": "", 
    "population_proper": ""
  }, 
  {
    "city": "Les Brehauts", 
    "lat": "49.4356", 
    "lng": "-2.6217", 
    "country": "Guernsey", 
    "iso2": "GG", 
    "admin_name": "", 
    "capital": "", 
    "population": "", 
    "population_proper": ""
  }, 
  {
    "city": "Clos du Valle", 
    "lat": "49.4967", 
    "lng": "-2.5181", 
    "country": "Guernsey", 
    "iso2": "GG", 
    "admin_name": "", 
    "capital": "", 
    "population": "", 
    "population_proper": ""
  }, 
  {
    "city": "Hatnez", 
    "lat": "49.4342", 
    "lng": "-2.5786", 
    "country": "Guernsey", 
    "iso2": "GG", 
    "admin_name": "", 
    "capital": "", 
    "population": "", 
    "population_proper": ""
  }, 
  {
    "city": "La Lague", 
    "lat": "49.4336", 
    "lng": "-2.6597", 
    "country": "Guernsey", 
    "iso2": "GG", 
    "admin_name": "", 
    "capital": "", 
    "population": "", 
    "population_proper": ""
  }, 
  {
    "city": "Les Sages", 
    "lat": "49.4342", 
    "lng": "-2.6394", 
    "country": "Guernsey", 
    "iso2": "GG", 
    "admin_name": "", 
    "capital": "", 
    "population": "", 
    "population_proper": ""
  }, 
  {
    "city": "Les Genâts", 
    "lat": "49.4775", 
    "lng": "-2.5800", 
    "country": "Guernsey", 
    "iso2": "GG", 
    "admin_name": "", 
    "capital": "", 
    "population": "", 
    "population_proper": ""
  }, 
  {
    "city": "Fortebrie", 
    "lat": "49.4889", 
    "lng": "-2.5147", 
    "country": "Guernsey", 
    "iso2": "GG", 
    "admin_name": "", 
    "capital": "", 
    "population": "", 
    "population_proper": ""
  }, 
  {
    "city": "Le Mont Durand", 
    "lat": "49.4503", 
    "lng": "-2.5492", 
    "country": "Guernsey", 
    "iso2": "GG", 
    "admin_name": "", 
    "capital": "", 
    "population": "", 
    "population_proper": ""
  }, 
  {
    "city": "Les Touillets", 
    "lat": "49.4569", 
    "lng": "-2.5778", 
    "country": "Guernsey", 
    "iso2": "GG", 
    "admin_name": "", 
    "capital": "", 
    "population": "", 
    "population_proper": ""
  }, 
  {
    "city": "Icart", 
    "lat": "49.4219", 
    "lng": "-2.5608", 
    "country": "Guernsey", 
    "iso2": "GG", 
    "admin_name": "", 
    "capital": "", 
    "population": "", 
    "population_proper": ""
  }, 
  {
    "city": "Braye du Valle", 
    "lat": "49.4872", 
    "lng": "-2.5353", 
    "country": "Guernsey", 
    "iso2": "GG", 
    "admin_name": "", 
    "capital": "", 
    "population": "", 
    "population_proper": ""
  }, 
  {
    "city": "La Tonelle", 
    "lat": "49.4742", 
    "lng": "-2.5306", 
    "country": "Guernsey", 
    "iso2": "GG", 
    "admin_name": "", 
    "capital": "", 
    "population": "", 
    "population_proper": ""
  }, 
  {
    "city": "Les Grantez", 
    "lat": "49.4517", 
    "lng": "-2.5983", 
    "country": "Guernsey", 
    "iso2": "GG", 
    "admin_name": "", 
    "capital": "", 
    "population": "", 
    "population_proper": ""
  }, 
  {
    "city": "La Rocque", 
    "lat": "49.4597", 
    "lng": "-2.6464", 
    "country": "Guernsey", 
    "iso2": "GG", 
    "admin_name": "", 
    "capital": "", 
    "population": "", 
    "population_proper": ""
  }, 
  {
    "city": "Calais", 
    "lat": "49.4336", 
    "lng": "-2.5397", 
    "country": "Guernsey", 
    "iso2": "GG", 
    "admin_name": "", 
    "capital": "", 
    "population": "", 
    "population_proper": ""
  }, 
  {
    "city": "Claire Mare", 
    "lat": "49.4561", 
    "lng": "-2.6461", 
    "country": "Guernsey", 
    "iso2": "GG", 
    "admin_name": "", 
    "capital": "", 
    "population": "", 
    "population_proper": ""
  }, 
  {
    "city": "Les Galliennes", 
    "lat": "49.4314", 
    "lng": "-2.6511", 
    "country": "Guernsey", 
    "iso2": "GG", 
    "admin_name": "", 
    "capital": "", 
    "population": "", 
    "population_proper": ""
  }, 
  {
    "city": "Les Marchez", 
    "lat": "49.4281", 
    "lng": "-2.6175", 
    "country": "Guernsey", 
    "iso2": "GG", 
    "admin_name": "", 
    "capital": "", 
    "population": "", 
    "population_proper": ""
  }, 
  {
    "city": "Pleinheaume", 
    "lat": "49.4861", 
    "lng": "-2.5636", 
    "country": "Guernsey", 
    "iso2": "GG", 
    "admin_name": "", 
    "capital": "", 
    "population": "", 
    "population_proper": ""
  }, 
  {
    "city": "Goubeys", 
    "lat": "49.4842", 
    "lng": "-2.5728", 
    "country": "Guernsey", 
    "iso2": "GG", 
    "admin_name": "", 
    "capital": "", 
    "population": "", 
    "population_proper": ""
  }, 
  {
    "city": "Fauxquets", 
    "lat": "49.4492", 
    "lng": "-2.5925", 
    "country": "Guernsey", 
    "iso2": "GG", 
    "admin_name": "", 
    "capital": "", 
    "population": "", 
    "population_proper": ""
  }, 
  {
    "city": "Jerbourg", 
    "lat": "49.4247", 
    "lng": "-2.5336", 
    "country": "Guernsey", 
    "iso2": "GG", 
    "admin_name": "", 
    "capital": "", 
    "population": "", 
    "population_proper": ""
  }, 
  {
    "city": "La Moye", 
    "lat": "49.4997", 
    "lng": "-2.5139", 
    "country": "Guernsey", 
    "iso2": "GG", 
    "admin_name": "", 
    "capital": "", 
    "population": "", 
    "population_proper": ""
  }, 
  {
    "city": "The Bridge", 
    "lat": "49.4831", 
    "lng": "-2.5217", 
    "country": "Guernsey", 
    "iso2": "GG", 
    "admin_name": "", 
    "capital": "", 
    "population": "", 
    "population_proper": ""
  }, 
  {
    "city": "Les Houards", 
    "lat": "49.4217", 
    "lng": "-2.5944", 
    "country": "Guernsey", 
    "iso2": "GG", 
    "admin_name": "", 
    "capital": "", 
    "population": "", 
    "population_proper": ""
  }, 
  {
    "city": "Braye", 
    "lat": "49.4667", 
    "lng": "-2.5500", 
    "country": "Guernsey", 
    "iso2": "GG", 
    "admin_name": "", 
    "capital": "", 
    "population": "", 
    "population_proper": ""
  }, 
  {
    "city": "Grand Fort", 
    "lat": "49.4842", 
    "lng": "-2.5444", 
    "country": "Guernsey", 
    "iso2": "GG", 
    "admin_name": "", 
    "capital": "", 
    "population": "", 
    "population_proper": ""
  }, 
  {
    "city": "Les Lohiers", 
    "lat": "49.4489", 
    "lng": "-2.6108", 
    "country": "Guernsey", 
    "iso2": "GG", 
    "admin_name": "", 
    "capital": "", 
    "population": "", 
    "population_proper": ""
  }, 
  {
    "city": "Le Vallon", 
    "lat": "49.4303", 
    "lng": "-2.5450", 
    "country": "Guernsey", 
    "iso2": "GG", 
    "admin_name": "", 
    "capital": "", 
    "population": "", 
    "population_proper": ""
  }, 
  {
    "city": "Hougues Magues", 
    "lat": "49.4814", 
    "lng": "-2.5492", 
    "country": "Guernsey", 
    "iso2": "GG", 
    "admin_name": "", 
    "capital": "", 
    "population": "", 
    "population_proper": ""
  }, 
  {
    "city": "Les Martins", 
    "lat": "49.4297", 
    "lng": "-2.6267", 
    "country": "Guernsey", 
    "iso2": "GG", 
    "admin_name": "", 
    "capital": "", 
    "population": "", 
    "population_proper": ""
  }, 
  {
    "city": "Les Martins", 
    "lat": "49.4878", 
    "lng": "-2.5564", 
    "country": "Guernsey", 
    "iso2": "GG", 
    "admin_name": "", 
    "capital": "", 
    "population": "", 
    "population_proper": ""
  }, 
  {
    "city": "Le Bourg", 
    "lat": "49.4314", 
    "lng": "-2.5925", 
    "country": "Guernsey", 
    "iso2": "GG", 
    "admin_name": "", 
    "capital": "", 
    "population": "", 
    "population_proper": ""
  }, 
  {
    "city": "Maresquet", 
    "lat": "49.4869", 
    "lng": "-2.5153", 
    "country": "Guernsey", 
    "iso2": "GG", 
    "admin_name": "", 
    "capital": "", 
    "population": "", 
    "population_proper": ""
  }, 
  {
    "city": "Paradis", 
    "lat": "49.5000", 
    "lng": "-2.5167", 
    "country": "Guernsey", 
    "iso2": "GG", 
    "admin_name": "", 
    "capital": "", 
    "population": "", 
    "population_proper": ""
  }, 
  {
    "city": "Perelle", 
    "lat": "49.4581", 
    "lng": "-2.6358", 
    "country": "Guernsey", 
    "iso2": "GG", 
    "admin_name": "", 
    "capital": "", 
    "population": "", 
    "population_proper": ""
  }, 
  {
    "city": "Grandes Capelles", 
    "lat": "49.4792", 
    "lng": "-2.5525", 
    "country": "Guernsey", 
    "iso2": "GG", 
    "admin_name": "", 
    "capital": "", 
    "population": "", 
    "population_proper": ""
  }, 
  {
    "city": "Les Quartiers", 
    "lat": "49.4731", 
    "lng": "-2.5517", 
    "country": "Guernsey", 
    "iso2": "GG", 
    "admin_name": "", 
    "capital": "", 
    "population": "", 
    "population_proper": ""
  }, 
  {
    "city": "Les Reveaux", 
    "lat": "49.4383", 
    "lng": "-2.6317", 
    "country": "Guernsey", 
    "iso2": "GG", 
    "admin_name": "", 
    "capital": "", 
    "population": "", 
    "population_proper": ""
  }, 
  {
    "city": "Les Niaux", 
    "lat": "49.4511", 
    "lng": "-2.5819", 
    "country": "Guernsey", 
    "iso2": "GG", 
    "admin_name": "", 
    "capital": "", 
    "population": "", 
    "population_proper": ""
  }, 
  {
    "city": "Les Clos Landais", 
    "lat": "49.4475", 
    "lng": "-2.6306", 
    "country": "Guernsey", 
    "iso2": "GG", 
    "admin_name": "", 
    "capital": "", 
    "population": "", 
    "population_proper": ""
  }, 
  {
    "city": "Baugy", 
    "lat": "49.4908", 
    "lng": "-2.5256", 
    "country": "Guernsey", 
    "iso2": "GG", 
    "admin_name": "", 
    "capital": "", 
    "population": "", 
    "population_proper": ""
  }, 
  {
    "city": "La Saline", 
    "lat": "49.4464", 
    "lng": "-2.6486", 
    "country": "Guernsey", 
    "iso2": "GG", 
    "admin_name": "", 
    "capital": "", 
    "population": "", 
    "population_proper": ""
  }, 
  {
    "city": "Friquet", 
    "lat": "49.4908", 
    "lng": "-2.5314", 
    "country": "Guernsey", 
    "iso2": "GG", 
    "admin_name": "", 
    "capital": "", 
    "population": "", 
    "population_proper": ""
  }, 
  {
    "city": "Bailiffs Cross", 
    "lat": "49.4492", 
    "lng": "-2.5633", 
    "country": "Guernsey", 
    "iso2": "GG", 
    "admin_name": "", 
    "capital": "", 
    "population": "", 
    "population_proper": ""
  }, 
  {
    "city": "Blanches Rocques", 
    "lat": "49.4692", 
    "lng": "-2.5911", 
    "country": "Guernsey", 
    "iso2": "GG", 
    "admin_name": "", 
    "capital": "", 
    "population": "", 
    "population_proper": ""
  }, 
  {
    "city": "Le Gron", 
    "lat": "49.4389", 
    "lng": "-2.6086", 
    "country": "Guernsey", 
    "iso2": "GG", 
    "admin_name": "", 
    "capital": "", 
    "population": "", 
    "population_proper": ""
  }, 
  {
    "city": "Les Simons", 
    "lat": "49.4275", 
    "lng": "-2.6386", 
    "country": "Guernsey", 
    "iso2": "GG", 
    "admin_name": "", 
    "capital": "", 
    "population": "", 
    "population_proper": ""
  }, 
  {
    "city": "Le Câtillion", 
    "lat": "49.4417", 
    "lng": "-2.6500", 
    "country": "Guernsey", 
    "iso2": "GG", 
    "admin_name": "", 
    "capital": "", 
    "population": "", 
    "population_proper": ""
  }, 
  {
    "city": "Frie Baton", 
    "lat": "49.4514", 
    "lng": "-2.6303", 
    "country": "Guernsey", 
    "iso2": "GG", 
    "admin_name": "", 
    "capital": "", 
    "population": "", 
    "population_proper": ""
  }, 
  {
    "city": "La Pomare", 
    "lat": "49.4472", 
    "lng": "-2.6447", 
    "country": "Guernsey", 
    "iso2": "GG", 
    "admin_name": "", 
    "capital": "", 
    "population": "", 
    "population_proper": ""
  }, 
  {
    "city": "La Colombelle", 
    "lat": "49.4461", 
    "lng": "-2.5475", 
    "country": "Guernsey", 
    "iso2": "GG", 
    "admin_name": "", 
    "capital": "", 
    "population": "", 
    "population_proper": ""
  }, 
  {
    "city": "La Hougue Falle", 
    "lat": "49.4364", 
    "lng": "-2.6339", 
    "country": "Guernsey", 
    "iso2": "GG", 
    "admin_name": "", 
    "capital": "", 
    "population": "", 
    "population_proper": ""
  }, 
  {
    "city": "Hougue Anthan", 
    "lat": "49.4286", 
    "lng": "-2.6514", 
    "country": "Guernsey", 
    "iso2": "GG", 
    "admin_name": "", 
    "capital": "", 
    "population": "", 
    "population_proper": ""
  }, 
  {
    "city": "Les Pieces", 
    "lat": "49.4333", 
    "lng": "-2.5831", 
    "country": "Guernsey", 
    "iso2": "GG", 
    "admin_name": "", 
    "capital": "", 
    "population": "", 
    "population_proper": ""
  }, 
  {
    "city": "South Side", 
    "lat": "49.4817", 
    "lng": "-2.5158", 
    "country": "Guernsey", 
    "iso2": "GG", 
    "admin_name": "", 
    "capital": "", 
    "population": "", 
    "population_proper": ""
  }, 
  {
    "city": "Rocque Poisson", 
    "lat": "49.4508", 
    "lng": "-2.6497", 
    "country": "Guernsey", 
    "iso2": "GG", 
    "admin_name": "", 
    "capital": "", 
    "population": "", 
    "population_proper": ""
  }, 
  {
    "city": "L’Aumone", 
    "lat": "49.4633", 
    "lng": "-2.5700", 
    "country": "Guernsey", 
    "iso2": "GG", 
    "admin_name": "", 
    "capital": "", 
    "population": "", 
    "population_proper": ""
  }, 
  {
    "city": "Hougue Moulin", 
    "lat": "49.4931", 
    "lng": "-2.5144", 
    "country": "Guernsey", 
    "iso2": "GG", 
    "admin_name": "", 
    "capital": "", 
    "population": "", 
    "population_proper": ""
  }, 
  {
    "city": "Les Vauxbelets", 
    "lat": "49.4422", 
    "lng": "-2.5875", 
    "country": "Guernsey", 
    "iso2": "GG", 
    "admin_name": "", 
    "capital": "", 
    "population": "", 
    "population_proper": ""
  }, 
  {
    "city": "Village de Putron", 
    "lat": "49.4383", 
    "lng": "-2.5428", 
    "country": "Guernsey", 
    "iso2": "GG", 
    "admin_name": "", 
    "capital": "", 
    "population": "", 
    "population_proper": ""
  }, 
  {
    "city": "Woodlands", 
    "lat": "49.4578", 
    "lng": "-2.5875", 
    "country": "Guernsey", 
    "iso2": "GG", 
    "admin_name": "", 
    "capital": "", 
    "population": "", 
    "population_proper": ""
  }, 
  {
    "city": "Longstore", 
    "lat": "49.4650", 
    "lng": "-2.5367", 
    "country": "Guernsey", 
    "iso2": "GG", 
    "admin_name": "", 
    "capital": "", 
    "population": "", 
    "population_proper": ""
  }, 
  {
    "city": "Les Pages", 
    "lat": "49.4325", 
    "lng": "-2.5719", 
    "country": "Guernsey", 
    "iso2": "GG", 
    "admin_name": "", 
    "capital": "", 
    "population": "", 
    "population_proper": ""
  }, 
  {
    "city": "Grandes Rocques", 
    "lat": "49.4839", 
    "lng": "-2.5833", 
    "country": "Guernsey", 
    "iso2": "GG", 
    "admin_name": "", 
    "capital": "", 
    "population": "", 
    "population_proper": ""
  }, 
  {
    "city": "Les Camps du Moulin", 
    "lat": "49.4336", 
    "lng": "-2.5500", 
    "country": "Guernsey", 
    "iso2": "GG", 
    "admin_name": "", 
    "capital": "", 
    "population": "", 
    "population_proper": ""
  }, 
  {
    "city": "Rozel", 
    "lat": "49.4508", 
    "lng": "-2.5417", 
    "country": "Guernsey", 
    "iso2": "GG", 
    "admin_name": "", 
    "capital": "", 
    "population": "", 
    "population_proper": ""
  }, 
  {
    "city": "Hall", 
    "lat": "49.4903", 
    "lng": "-2.5228", 
    "country": "Guernsey", 
    "iso2": "GG", 
    "admin_name": "", 
    "capital": "", 
    "population": "", 
    "population_proper": ""
  }, 
  {
    "city": "Hall", 
    "lat": "49.4589", 
    "lng": "-2.6114", 
    "country": "Guernsey", 
    "iso2": "GG", 
    "admin_name": "", 
    "capital": "", 
    "population": "", 
    "population_proper": ""
  }, 
  {
    "city": "Beaucamps de Bas", 
    "lat": "49.4639", 
    "lng": "-2.5808", 
    "country": "Guernsey", 
    "iso2": "GG", 
    "admin_name": "", 
    "capital": "", 
    "population": "", 
    "population_proper": ""
  }, 
  {
    "city": "La Grève", 
    "lat": "49.4933", 
    "lng": "-2.5336", 
    "country": "Guernsey", 
    "iso2": "GG", 
    "admin_name": "", 
    "capital": "", 
    "population": "", 
    "population_proper": ""
  }, 
  {
    "city": "La Chaumière", 
    "lat": "49.4572", 
    "lng": "-2.5731", 
    "country": "Guernsey", 
    "iso2": "GG", 
    "admin_name": "", 
    "capital": "", 
    "population": "", 
    "population_proper": ""
  }, 
  {
    "city": "Le Catioroc", 
    "lat": "49.4578", 
    "lng": "-2.6411", 
    "country": "Guernsey", 
    "iso2": "GG", 
    "admin_name": "", 
    "capital": "", 
    "population": "", 
    "population_proper": ""
  }, 
  {
    "city": "Les Padins", 
    "lat": "49.4475", 
    "lng": "-2.6242", 
    "country": "Guernsey", 
    "iso2": "GG", 
    "admin_name": "", 
    "capital": "", 
    "population": "", 
    "population_proper": ""
  }
]