[
  {
    "city": "Bishkek", 
    "lat": "42.8667", 
    "lng": "74.5667", 
    "country": "Kyrgyzstan", 
    "iso2": "KG", 
    "admin_name": "Bishkek", 
    "capital": "primary", 
    "population": "1027200", 
    "population_proper": "1027200"
  }, 
  {
    "city": "Osh", 
    "lat": "40.5333", 
    "lng": "72.7833", 
    "country": "Kyrgyzstan", 
    "iso2": "KG", 
    "admin_name": "Osh", 
    "capital": "admin", 
    "population": "251000", 
    "population_proper": "251000"
  }, 
  {
    "city": "Jalal-Abad", 
    "lat": "40.9375", 
    "lng": "72.9861", 
    "country": "Kyrgyzstan", 
    "iso2": "KG", 
    "admin_name": "Jalal-Abad", 
    "capital": "admin", 
    "population": "89004", 
    "population_proper": "89004"
  }, 
  {
    "city": "Kara-Balta", 
    "lat": "42.8306", 
    "lng": "73.8857", 
    "country": "Kyrgyzstan", 
    "iso2": "KG", 
    "admin_name": "Chüy", 
    "capital": "minor", 
    "population": "74133", 
    "population_proper": "62796"
  }, 
  {
    "city": "Karakol", 
    "lat": "42.5000", 
    "lng": "78.3833", 
    "country": "Kyrgyzstan", 
    "iso2": "KG", 
    "admin_name": "Ysyk-Köl", 
    "capital": "admin", 
    "population": "63377", 
    "population_proper": "63377"
  }, 
  {
    "city": "Tokmok", 
    "lat": "42.8390", 
    "lng": "75.2910", 
    "country": "Kyrgyzstan", 
    "iso2": "KG", 
    "admin_name": "Chüy", 
    "capital": "", 
    "population": "53231", 
    "population_proper": "53231"
  }, 
  {
    "city": "Özgön", 
    "lat": "40.7667", 
    "lng": "73.3000", 
    "country": "Kyrgyzstan", 
    "iso2": "KG", 
    "admin_name": "Osh", 
    "capital": "", 
    "population": "49410", 
    "population_proper": "49410"
  }, 
  {
    "city": "Balykchy", 
    "lat": "42.4667", 
    "lng": "76.1833", 
    "country": "Kyrgyzstan", 
    "iso2": "KG", 
    "admin_name": "Ysyk-Köl", 
    "capital": "", 
    "population": "42380", 
    "population_proper": "42380"
  }, 
  {
    "city": "Talas", 
    "lat": "42.5184", 
    "lng": "72.2429", 
    "country": "Kyrgyzstan", 
    "iso2": "KG", 
    "admin_name": "Talas", 
    "capital": "admin", 
    "population": "35172", 
    "population_proper": "22120"
  }, 
  {
    "city": "Naryn", 
    "lat": "41.4333", 
    "lng": "76.0000", 
    "country": "Kyrgyzstan", 
    "iso2": "KG", 
    "admin_name": "Naryn", 
    "capital": "admin", 
    "population": "34822", 
    "population_proper": "34822"
  }, 
  {
    "city": "Kyzyl-Kyya", 
    "lat": "40.2500", 
    "lng": "72.1167", 
    "country": "Kyrgyzstan", 
    "iso2": "KG", 
    "admin_name": "Batken", 
    "capital": "", 
    "population": "31727", 
    "population_proper": "31727"
  }, 
  {
    "city": "Toktogul", 
    "lat": "41.8826", 
    "lng": "72.9372", 
    "country": "Kyrgyzstan", 
    "iso2": "KG", 
    "admin_name": "Jalal-Abad", 
    "capital": "minor", 
    "population": "26115", 
    "population_proper": "19336"
  }, 
  {
    "city": "Kant", 
    "lat": "42.8833", 
    "lng": "74.8500", 
    "country": "Kyrgyzstan", 
    "iso2": "KG", 
    "admin_name": "Chüy", 
    "capital": "minor", 
    "population": "21589", 
    "population_proper": "21589"
  }, 
  {
    "city": "Belovodskoe", 
    "lat": "42.8333", 
    "lng": "74.1167", 
    "country": "Kyrgyzstan", 
    "iso2": "KG", 
    "admin_name": "Chüy", 
    "capital": "minor", 
    "population": "21275", 
    "population_proper": "21275"
  }, 
  {
    "city": "Jangy-Nookat", 
    "lat": "40.2500", 
    "lng": "72.5500", 
    "country": "Kyrgyzstan", 
    "iso2": "KG", 
    "admin_name": "Osh", 
    "capital": "", 
    "population": "21049", 
    "population_proper": "21049"
  }, 
  {
    "city": "Kara-Suu", 
    "lat": "40.7000", 
    "lng": "72.8833", 
    "country": "Kyrgyzstan", 
    "iso2": "KG", 
    "admin_name": "Osh", 
    "capital": "minor", 
    "population": "20862", 
    "population_proper": "20862"
  }, 
  {
    "city": "Lebedinovka", 
    "lat": "42.8800", 
    "lng": "74.6800", 
    "country": "Kyrgyzstan", 
    "iso2": "KG", 
    "admin_name": "Chüy", 
    "capital": "minor", 
    "population": "20709", 
    "population_proper": "20709"
  }, 
  {
    "city": "Mayluu-Suu", 
    "lat": "41.2457", 
    "lng": "72.4480", 
    "country": "Kyrgyzstan", 
    "iso2": "KG", 
    "admin_name": "Jalal-Abad", 
    "capital": "", 
    "population": "20200", 
    "population_proper": "20200"
  }, 
  {
    "city": "Tash-Kömür", 
    "lat": "41.3500", 
    "lng": "72.2167", 
    "country": "Kyrgyzstan", 
    "iso2": "KG", 
    "admin_name": "Jalal-Abad", 
    "capital": "", 
    "population": "19310", 
    "population_proper": "19310"
  }, 
  {
    "city": "Kara-Köl", 
    "lat": "41.6283", 
    "lng": "72.6703", 
    "country": "Kyrgyzstan", 
    "iso2": "KG", 
    "admin_name": "Jalal-Abad", 
    "capital": "", 
    "population": "18843", 
    "population_proper": "18843"
  }, 
  {
    "city": "Novopavlovka", 
    "lat": "42.8700", 
    "lng": "74.4800", 
    "country": "Kyrgyzstan", 
    "iso2": "KG", 
    "admin_name": "Chüy", 
    "capital": "", 
    "population": "18332", 
    "population_proper": "18332"
  }, 
  {
    "city": "Isfana", 
    "lat": "39.8333", 
    "lng": "69.5167", 
    "country": "Kyrgyzstan", 
    "iso2": "KG", 
    "admin_name": "Batken", 
    "capital": "minor", 
    "population": "18244", 
    "population_proper": "18244"
  }, 
  {
    "city": "At-Bashy", 
    "lat": "41.1725", 
    "lng": "75.7968", 
    "country": "Kyrgyzstan", 
    "iso2": "KG", 
    "admin_name": "Naryn", 
    "capital": "minor", 
    "population": "15601", 
    "population_proper": "15226"
  }, 
  {
    "city": "Kök-Janggak", 
    "lat": "41.0307", 
    "lng": "73.2058", 
    "country": "Kyrgyzstan", 
    "iso2": "KG", 
    "admin_name": "Jalal-Abad", 
    "capital": "", 
    "population": "15000", 
    "population_proper": "14046"
  }, 
  {
    "city": "Kochkor-Ata", 
    "lat": "41.0358", 
    "lng": "72.4814", 
    "country": "Kyrgyzstan", 
    "iso2": "KG", 
    "admin_name": "Jalal-Abad", 
    "capital": "", 
    "population": "14814", 
    "population_proper": "14814"
  }, 
  {
    "city": "Kerben", 
    "lat": "41.5000", 
    "lng": "71.7500", 
    "country": "Kyrgyzstan", 
    "iso2": "KG", 
    "admin_name": "Jalal-Abad", 
    "capital": "minor", 
    "population": "14141", 
    "population_proper": "14141"
  }, 
  {
    "city": "Sülüktü", 
    "lat": "39.9333", 
    "lng": "69.5667", 
    "country": "Kyrgyzstan", 
    "iso2": "KG", 
    "admin_name": "Batken", 
    "capital": "", 
    "population": "13378", 
    "population_proper": "13378"
  }, 
  {
    "city": "Batken", 
    "lat": "40.0625", 
    "lng": "70.8194", 
    "country": "Kyrgyzstan", 
    "iso2": "KG", 
    "admin_name": "Batken", 
    "capital": "admin", 
    "population": "12134", 
    "population_proper": "12134"
  }, 
  {
    "city": "Alamedin", 
    "lat": "42.8900", 
    "lng": "74.6300", 
    "country": "Kyrgyzstan", 
    "iso2": "KG", 
    "admin_name": "Chüy", 
    "capital": "", 
    "population": "11773", 
    "population_proper": "11773"
  }, 
  {
    "city": "Cholpon-Ata", 
    "lat": "42.6500", 
    "lng": "77.0833", 
    "country": "Kyrgyzstan", 
    "iso2": "KG", 
    "admin_name": "Ysyk-Köl", 
    "capital": "minor", 
    "population": "11520", 
    "population_proper": "11520"
  }, 
  {
    "city": "Aydarken", 
    "lat": "39.9333", 
    "lng": "71.3333", 
    "country": "Kyrgyzstan", 
    "iso2": "KG", 
    "admin_name": "Batken", 
    "capital": "", 
    "population": "10331", 
    "population_proper": "10331"
  }, 
  {
    "city": "Shopokov", 
    "lat": "42.8167", 
    "lng": "74.2333", 
    "country": "Kyrgyzstan", 
    "iso2": "KG", 
    "admin_name": "Chüy", 
    "capital": "", 
    "population": "8749", 
    "population_proper": "8749"
  }, 
  {
    "city": "Bosteri", 
    "lat": "42.6500", 
    "lng": "77.1800", 
    "country": "Kyrgyzstan", 
    "iso2": "KG", 
    "admin_name": "Ysyk-Köl", 
    "capital": "", 
    "population": "7815", 
    "population_proper": "7815"
  }, 
  {
    "city": "Chaek", 
    "lat": "41.9300", 
    "lng": "74.5100", 
    "country": "Kyrgyzstan", 
    "iso2": "KG", 
    "admin_name": "Naryn", 
    "capital": "minor", 
    "population": "7009", 
    "population_proper": "7009"
  }, 
  {
    "city": "Klyuchevka", 
    "lat": "42.5686", 
    "lng": "71.8172", 
    "country": "Kyrgyzstan", 
    "iso2": "KG", 
    "admin_name": "Talas", 
    "capital": "", 
    "population": "5596", 
    "population_proper": "5596"
  }, 
  {
    "city": "Tash-Döbö", 
    "lat": "42.7237", 
    "lng": "74.5721", 
    "country": "Kyrgyzstan", 
    "iso2": "KG", 
    "admin_name": "Chüy", 
    "capital": "", 
    "population": "5397", 
    "population_proper": "5397"
  }, 
  {
    "city": "Grigor’evka", 
    "lat": "42.7200", 
    "lng": "77.4700", 
    "country": "Kyrgyzstan", 
    "iso2": "KG", 
    "admin_name": "Ysyk-Köl", 
    "capital": "", 
    "population": "5133", 
    "population_proper": "5133"
  }, 
  {
    "city": "Kaji-Say", 
    "lat": "42.1400", 
    "lng": "77.1806", 
    "country": "Kyrgyzstan", 
    "iso2": "KG", 
    "admin_name": "Ysyk-Köl", 
    "capital": "", 
    "population": "4220", 
    "population_proper": "4220"
  }, 
  {
    "city": "Bash-Kayyngdy", 
    "lat": "41.1500", 
    "lng": "75.9000", 
    "country": "Kyrgyzstan", 
    "iso2": "KG", 
    "admin_name": "Naryn", 
    "capital": "", 
    "population": "4078", 
    "population_proper": "4078"
  }, 
  {
    "city": "Yur’evka", 
    "lat": "42.7153", 
    "lng": "75.0344", 
    "country": "Kyrgyzstan", 
    "iso2": "KG", 
    "admin_name": "Chüy", 
    "capital": "", 
    "population": "3953", 
    "population_proper": "3953"
  }, 
  {
    "city": "Romanovka", 
    "lat": "42.8600", 
    "lng": "74.3300", 
    "country": "Kyrgyzstan", 
    "iso2": "KG", 
    "admin_name": "Chüy", 
    "capital": "", 
    "population": "3102", 
    "population_proper": "3102"
  }, 
  {
    "city": "Chüy", 
    "lat": "42.8197", 
    "lng": "75.2823", 
    "country": "Kyrgyzstan", 
    "iso2": "KG", 
    "admin_name": "Chüy", 
    "capital": "minor", 
    "population": "", 
    "population_proper": ""
  }, 
  {
    "city": "Alga", 
    "lat": "40.2363", 
    "lng": "71.4990", 
    "country": "Kyrgyzstan", 
    "iso2": "KG", 
    "admin_name": "Batken", 
    "capital": "minor", 
    "population": "", 
    "population_proper": ""
  }, 
  {
    "city": "Kyrgyz-Kyshtak", 
    "lat": "40.3106", 
    "lng": "71.3497", 
    "country": "Kyrgyzstan", 
    "iso2": "KG", 
    "admin_name": "Batken", 
    "capital": "minor", 
    "population": "", 
    "population_proper": ""
  }, 
  {
    "city": "Ivanovo-Alekseyevka", 
    "lat": "42.5469", 
    "lng": "72.2092", 
    "country": "Kyrgyzstan", 
    "iso2": "KG", 
    "admin_name": "Talas", 
    "capital": "minor", 
    "population": "", 
    "population_proper": ""
  }, 
  {
    "city": "Aravan", 
    "lat": "40.5161", 
    "lng": "72.4996", 
    "country": "Kyrgyzstan", 
    "iso2": "KG", 
    "admin_name": "Osh", 
    "capital": "minor", 
    "population": "", 
    "population_proper": ""
  }, 
  {
    "city": "Ak-Tatyr", 
    "lat": "39.9599", 
    "lng": "70.4845", 
    "country": "Kyrgyzstan", 
    "iso2": "KG", 
    "admin_name": "Batken", 
    "capital": "minor", 
    "population": "", 
    "population_proper": ""
  }, 
  {
    "city": "Kara-Bak", 
    "lat": "40.1617", 
    "lng": "70.8196", 
    "country": "Kyrgyzstan", 
    "iso2": "KG", 
    "admin_name": "Batken", 
    "capital": "minor", 
    "population": "", 
    "population_proper": ""
  }, 
  {
    "city": "Samarkandyk", 
    "lat": "39.9944", 
    "lng": "70.5389", 
    "country": "Kyrgyzstan", 
    "iso2": "KG", 
    "admin_name": "Batken", 
    "capital": "minor", 
    "population": "", 
    "population_proper": ""
  }, 
  {
    "city": "Ak-Say", 
    "lat": "39.8744", 
    "lng": "70.5221", 
    "country": "Kyrgyzstan", 
    "iso2": "KG", 
    "admin_name": "Batken", 
    "capital": "minor", 
    "population": "", 
    "population_proper": ""
  }, 
  {
    "city": "Buzhum", 
    "lat": "40.0048", 
    "lng": "70.8352", 
    "country": "Kyrgyzstan", 
    "iso2": "KG", 
    "admin_name": "Batken", 
    "capital": "minor", 
    "population": "", 
    "population_proper": ""
  }, 
  {
    "city": "Chek", 
    "lat": "40.1093", 
    "lng": "70.8464", 
    "country": "Kyrgyzstan", 
    "iso2": "KG", 
    "admin_name": "Batken", 
    "capital": "minor", 
    "population": "", 
    "population_proper": ""
  }, 
  {
    "city": "Suzak", 
    "lat": "40.8982", 
    "lng": "72.9048", 
    "country": "Kyrgyzstan", 
    "iso2": "KG", 
    "admin_name": "Jalal-Abad", 
    "capital": "minor", 
    "population": "", 
    "population_proper": ""
  }, 
  {
    "city": "Ivanovka", 
    "lat": "42.8878", 
    "lng": "75.0850", 
    "country": "Kyrgyzstan", 
    "iso2": "KG", 
    "admin_name": "Chüy", 
    "capital": "minor", 
    "population": "", 
    "population_proper": ""
  }, 
  {
    "city": "Markaz", 
    "lat": "40.2402", 
    "lng": "71.8998", 
    "country": "Kyrgyzstan", 
    "iso2": "KG", 
    "admin_name": "Batken", 
    "capital": "minor", 
    "population": "", 
    "population_proper": ""
  }, 
  {
    "city": "Bazar-Korgon", 
    "lat": "41.0376", 
    "lng": "72.7459", 
    "country": "Kyrgyzstan", 
    "iso2": "KG", 
    "admin_name": "Jalal-Abad", 
    "capital": "minor", 
    "population": "", 
    "population_proper": ""
  }, 
  {
    "city": "Eski-Nookat", 
    "lat": "40.2713", 
    "lng": "72.6131", 
    "country": "Kyrgyzstan", 
    "iso2": "KG", 
    "admin_name": "Osh", 
    "capital": "minor", 
    "population": "", 
    "population_proper": ""
  }, 
  {
    "city": "Sokuluk", 
    "lat": "42.8540", 
    "lng": "74.3026", 
    "country": "Kyrgyzstan", 
    "iso2": "KG", 
    "admin_name": "Chüy", 
    "capital": "minor", 
    "population": "", 
    "population_proper": ""
  }, 
  {
    "city": "Massy", 
    "lat": "41.0640", 
    "lng": "72.6375", 
    "country": "Kyrgyzstan", 
    "iso2": "KG", 
    "admin_name": "Jalal-Abad", 
    "capital": "minor", 
    "population": "", 
    "population_proper": ""
  }, 
  {
    "city": "Tüp", 
    "lat": "42.7276", 
    "lng": "78.3648", 
    "country": "Kyrgyzstan", 
    "iso2": "KG", 
    "admin_name": "Ysyk-Köl", 
    "capital": "minor", 
    "population": "", 
    "population_proper": ""
  }, 
  {
    "city": "Ak-Suu", 
    "lat": "39.8988", 
    "lng": "69.3716", 
    "country": "Kyrgyzstan", 
    "iso2": "KG", 
    "admin_name": "Batken", 
    "capital": "minor", 
    "population": "", 
    "population_proper": ""
  }, 
  {
    "city": "Tsentral’noye", 
    "lat": "40.0286", 
    "lng": "69.9439", 
    "country": "Kyrgyzstan", 
    "iso2": "KG", 
    "admin_name": "Batken", 
    "capital": "minor", 
    "population": "", 
    "population_proper": ""
  }, 
  {
    "city": "Katran", 
    "lat": "39.8443", 
    "lng": "70.0147", 
    "country": "Kyrgyzstan", 
    "iso2": "KG", 
    "admin_name": "Batken", 
    "capital": "minor", 
    "population": "", 
    "population_proper": ""
  }, 
  {
    "city": "Toguz-Bulak", 
    "lat": "39.8667", 
    "lng": "69.7500", 
    "country": "Kyrgyzstan", 
    "iso2": "KG", 
    "admin_name": "Batken", 
    "capital": "minor", 
    "population": "", 
    "population_proper": ""
  }, 
  {
    "city": "Korgon", 
    "lat": "39.8890", 
    "lng": "69.9356", 
    "country": "Kyrgyzstan", 
    "iso2": "KG", 
    "admin_name": "Batken", 
    "capital": "minor", 
    "population": "", 
    "population_proper": ""
  }, 
  {
    "city": "Andarak", 
    "lat": "39.7685", 
    "lng": "69.4640", 
    "country": "Kyrgyzstan", 
    "iso2": "KG", 
    "admin_name": "Batken", 
    "capital": "minor", 
    "population": "", 
    "population_proper": ""
  }, 
  {
    "city": "Kulundu", 
    "lat": "40.1069", 
    "lng": "69.6431", 
    "country": "Kyrgyzstan", 
    "iso2": "KG", 
    "admin_name": "Batken", 
    "capital": "minor", 
    "population": "", 
    "population_proper": ""
  }, 
  {
    "city": "Beshkent", 
    "lat": "40.0308", 
    "lng": "69.8186", 
    "country": "Kyrgyzstan", 
    "iso2": "KG", 
    "admin_name": "Batken", 
    "capital": "minor", 
    "population": "", 
    "population_proper": ""
  }, 
  {
    "city": "Orozbekov", 
    "lat": "40.0569", 
    "lng": "71.6695", 
    "country": "Kyrgyzstan", 
    "iso2": "KG", 
    "admin_name": "Batken", 
    "capital": "minor", 
    "population": "", 
    "population_proper": ""
  }, 
  {
    "city": "Ormosh", 
    "lat": "39.9459", 
    "lng": "71.2609", 
    "country": "Kyrgyzstan", 
    "iso2": "KG", 
    "admin_name": "Batken", 
    "capital": "minor", 
    "population": "", 
    "population_proper": ""
  }, 
  {
    "city": "Kara-Döbö", 
    "lat": "40.2443", 
    "lng": "72.0448", 
    "country": "Kyrgyzstan", 
    "iso2": "KG", 
    "admin_name": "Batken", 
    "capital": "minor", 
    "population": "", 
    "population_proper": ""
  }, 
  {
    "city": "Uch-Korgon", 
    "lat": "40.2288", 
    "lng": "72.0592", 
    "country": "Kyrgyzstan", 
    "iso2": "KG", 
    "admin_name": "Batken", 
    "capital": "minor", 
    "population": "", 
    "population_proper": ""
  }, 
  {
    "city": "Kyzyl-Bulak", 
    "lat": "40.0517", 
    "lng": "71.7373", 
    "country": "Kyrgyzstan", 
    "iso2": "KG", 
    "admin_name": "Batken", 
    "capital": "minor", 
    "population": "", 
    "population_proper": ""
  }, 
  {
    "city": "Khalmion", 
    "lat": "40.2122", 
    "lng": "71.6327", 
    "country": "Kyrgyzstan", 
    "iso2": "KG", 
    "admin_name": "Batken", 
    "capital": "minor", 
    "population": "", 
    "population_proper": ""
  }, 
  {
    "city": "Kara-Dzhygach", 
    "lat": "40.1221", 
    "lng": "72.0927", 
    "country": "Kyrgyzstan", 
    "iso2": "KG", 
    "admin_name": "Batken", 
    "capital": "minor", 
    "population": "", 
    "population_proper": ""
  }, 
  {
    "city": "Ala-Buka", 
    "lat": "41.4105", 
    "lng": "71.4863", 
    "country": "Kyrgyzstan", 
    "iso2": "KG", 
    "admin_name": "Jalal-Abad", 
    "capital": "minor", 
    "population": "", 
    "population_proper": ""
  }, 
  {
    "city": "Pokrovka", 
    "lat": "42.7362", 
    "lng": "71.6098", 
    "country": "Kyrgyzstan", 
    "iso2": "KG", 
    "admin_name": "Talas", 
    "capital": "minor", 
    "population": "", 
    "population_proper": ""
  }, 
  {
    "city": "Kyzyl-Adyr", 
    "lat": "42.6198", 
    "lng": "71.5891", 
    "country": "Kyrgyzstan", 
    "iso2": "KG", 
    "admin_name": "Talas", 
    "capital": "minor", 
    "population": "", 
    "population_proper": ""
  }, 
  {
    "city": "Kara-Kulja", 
    "lat": "40.6322", 
    "lng": "73.5925", 
    "country": "Kyrgyzstan", 
    "iso2": "KG", 
    "admin_name": "Osh", 
    "capital": "minor", 
    "population": "", 
    "population_proper": ""
  }, 
  {
    "city": "Leninpol’", 
    "lat": "42.4930", 
    "lng": "71.9236", 
    "country": "Kyrgyzstan", 
    "iso2": "KG", 
    "admin_name": "Talas", 
    "capital": "minor", 
    "population": "", 
    "population_proper": ""
  }, 
  {
    "city": "Üch-Terek", 
    "lat": "41.7622", 
    "lng": "73.2003", 
    "country": "Kyrgyzstan", 
    "iso2": "KG", 
    "admin_name": "Jalal-Abad", 
    "capital": "minor", 
    "population": "", 
    "population_proper": ""
  }, 
  {
    "city": "Kemin", 
    "lat": "42.7846", 
    "lng": "75.6892", 
    "country": "Kyrgyzstan", 
    "iso2": "KG", 
    "admin_name": "Chüy", 
    "capital": "minor", 
    "population": "", 
    "population_proper": ""
  }, 
  {
    "city": "Tayan", 
    "lat": "39.9100", 
    "lng": "71.1300", 
    "country": "Kyrgyzstan", 
    "iso2": "KG", 
    "admin_name": "Batken", 
    "capital": "minor", 
    "population": "", 
    "population_proper": ""
  }, 
  {
    "city": "Boz-Adyr", 
    "lat": "39.9986", 
    "lng": "71.0734", 
    "country": "Kyrgyzstan", 
    "iso2": "KG", 
    "admin_name": "Batken", 
    "capital": "minor", 
    "population": "", 
    "population_proper": ""
  }, 
  {
    "city": "Kochkor", 
    "lat": "42.2155", 
    "lng": "75.7566", 
    "country": "Kyrgyzstan", 
    "iso2": "KG", 
    "admin_name": "Naryn", 
    "capital": "minor", 
    "population": "", 
    "population_proper": ""
  }, 
  {
    "city": "Gülchö", 
    "lat": "40.3138", 
    "lng": "73.4442", 
    "country": "Kyrgyzstan", 
    "iso2": "KG", 
    "admin_name": "Osh", 
    "capital": "minor", 
    "population": "", 
    "population_proper": ""
  }, 
  {
    "city": "Kayyngdy", 
    "lat": "42.8247", 
    "lng": "73.6758", 
    "country": "Kyrgyzstan", 
    "iso2": "KG", 
    "admin_name": "Chüy", 
    "capital": "minor", 
    "population": "", 
    "population_proper": ""
  }, 
  {
    "city": "Bökönbaev", 
    "lat": "42.1100", 
    "lng": "76.9900", 
    "country": "Kyrgyzstan", 
    "iso2": "KG", 
    "admin_name": "Ysyk-Köl", 
    "capital": "minor", 
    "population": "", 
    "population_proper": ""
  }, 
  {
    "city": "Teploklyuchenka", 
    "lat": "42.4995", 
    "lng": "78.5270", 
    "country": "Kyrgyzstan", 
    "iso2": "KG", 
    "admin_name": "Ysyk-Köl", 
    "capital": "minor", 
    "population": "", 
    "population_proper": ""
  }, 
  {
    "city": "Kyzyl-Suu", 
    "lat": "42.3421", 
    "lng": "78.0064", 
    "country": "Kyrgyzstan", 
    "iso2": "KG", 
    "admin_name": "Ysyk-Köl", 
    "capital": "minor", 
    "population": "", 
    "population_proper": ""
  }, 
  {
    "city": "Kazarman", 
    "lat": "41.4045", 
    "lng": "74.0283", 
    "country": "Kyrgyzstan", 
    "iso2": "KG", 
    "admin_name": "Jalal-Abad", 
    "capital": "minor", 
    "population": "", 
    "population_proper": ""
  }, 
  {
    "city": "Baetov", 
    "lat": "41.2667", 
    "lng": "74.9570", 
    "country": "Kyrgyzstan", 
    "iso2": "KG", 
    "admin_name": "Naryn", 
    "capital": "minor", 
    "population": "", 
    "population_proper": ""
  }, 
  {
    "city": "Kanysh-Kyya", 
    "lat": "41.7654", 
    "lng": "71.0918", 
    "country": "Kyrgyzstan", 
    "iso2": "KG", 
    "admin_name": "Jalal-Abad", 
    "capital": "minor", 
    "population": "", 
    "population_proper": ""
  }
]