[
  {
    "city": "Fort-de-France", 
    "lat": "14.6104", 
    "lng": "-61.0800", 
    "country": "Martinique", 
    "iso2": "MQ", 
    "admin_name": "", 
    "capital": "primary", 
    "population": "253995", 
    "population_proper": "91249"
  }, 
  {
    "city": "Rodate", 
    "lat": "14.6556", 
    "lng": "-61.0736", 
    "country": "Martinique", 
    "iso2": "MQ", 
    "admin_name": "", 
    "capital": "", 
    "population": "", 
    "population_proper": ""
  }, 
  {
    "city": "Tourtet", 
    "lat": "14.6333", 
    "lng": "-61.0667", 
    "country": "Martinique", 
    "iso2": "MQ", 
    "admin_name": "", 
    "capital": "", 
    "population": "", 
    "population_proper": ""
  }, 
  {
    "city": "Camp de Balata-Tourtet", 
    "lat": "14.6641", 
    "lng": "-61.0876", 
    "country": "Martinique", 
    "iso2": "MQ", 
    "admin_name": "", 
    "capital": "", 
    "population": "", 
    "population_proper": ""
  }, 
  {
    "city": "Gerbault", 
    "lat": "14.6000", 
    "lng": "-61.0500", 
    "country": "Martinique", 
    "iso2": "MQ", 
    "admin_name": "", 
    "capital": "", 
    "population": "", 
    "population_proper": ""
  }, 
  {
    "city": "Barême", 
    "lat": "14.6575", 
    "lng": "-61.0803", 
    "country": "Martinique", 
    "iso2": "MQ", 
    "admin_name": "", 
    "capital": "", 
    "population": "", 
    "population_proper": ""
  }, 
  {
    "city": "La Régale", 
    "lat": "14.6440", 
    "lng": "-61.0587", 
    "country": "Martinique", 
    "iso2": "MQ", 
    "admin_name": "", 
    "capital": "", 
    "population": "", 
    "population_proper": ""
  }, 
  {
    "city": "Quartier Rivière Monsieur", 
    "lat": "14.6167", 
    "lng": "-61.0500", 
    "country": "Martinique", 
    "iso2": "MQ", 
    "admin_name": "", 
    "capital": "", 
    "population": "", 
    "population_proper": ""
  }, 
  {
    "city": "Balata", 
    "lat": "14.6497", 
    "lng": "-61.0821", 
    "country": "Martinique", 
    "iso2": "MQ", 
    "admin_name": "", 
    "capital": "", 
    "population": "", 
    "population_proper": ""
  }, 
  {
    "city": "Quartier la Fontaine", 
    "lat": "14.6331", 
    "lng": "-61.0689", 
    "country": "Martinique", 
    "iso2": "MQ", 
    "admin_name": "", 
    "capital": "", 
    "population": "", 
    "population_proper": ""
  }, 
  {
    "city": "La Médaille", 
    "lat": "14.7016", 
    "lng": "-61.0886", 
    "country": "Martinique", 
    "iso2": "MQ", 
    "admin_name": "", 
    "capital": "", 
    "population": "", 
    "population_proper": ""
  }, 
  {
    "city": "Village Colson", 
    "lat": "14.6942", 
    "lng": "-61.0889", 
    "country": "Martinique", 
    "iso2": "MQ", 
    "admin_name": "", 
    "capital": "", 
    "population": "", 
    "population_proper": ""
  }, 
  {
    "city": "La Caféière", 
    "lat": "14.6571", 
    "lng": "-61.0603", 
    "country": "Martinique", 
    "iso2": "MQ", 
    "admin_name": "", 
    "capital": "", 
    "population": "", 
    "population_proper": ""
  }, 
  {
    "city": "Rivière l’Or", 
    "lat": "14.6637", 
    "lng": "-61.0669", 
    "country": "Martinique", 
    "iso2": "MQ", 
    "admin_name": "", 
    "capital": "", 
    "population": "", 
    "population_proper": ""
  }, 
  {
    "city": "Alma", 
    "lat": "14.7000", 
    "lng": "-61.1000", 
    "country": "Martinique", 
    "iso2": "MQ", 
    "admin_name": "", 
    "capital": "", 
    "population": "", 
    "population_proper": ""
  }, 
  {
    "city": "Absalon", 
    "lat": "14.6833", 
    "lng": "-61.1000", 
    "country": "Martinique", 
    "iso2": "MQ", 
    "admin_name": "", 
    "capital": "", 
    "population": "", 
    "population_proper": ""
  }, 
  {
    "city": "Touza", 
    "lat": "14.6241", 
    "lng": "-61.0922", 
    "country": "Martinique", 
    "iso2": "MQ", 
    "admin_name": "", 
    "capital": "", 
    "population": "", 
    "population_proper": ""
  }, 
  {
    "city": "Schœlcher", 
    "lat": "14.6175", 
    "lng": "-61.0988", 
    "country": "Martinique", 
    "iso2": "MQ", 
    "admin_name": "", 
    "capital": "", 
    "population": "", 
    "population_proper": ""
  }, 
  {
    "city": "Hauteurs de Terreville", 
    "lat": "14.6465", 
    "lng": "-61.1002", 
    "country": "Martinique", 
    "iso2": "MQ", 
    "admin_name": "", 
    "capital": "", 
    "population": "", 
    "population_proper": ""
  }, 
  {
    "city": "Fond Nigaud", 
    "lat": "14.6167", 
    "lng": "-61.1000", 
    "country": "Martinique", 
    "iso2": "MQ", 
    "admin_name": "", 
    "capital": "", 
    "population": "", 
    "population_proper": ""
  }, 
  {
    "city": "Morne Lilet", 
    "lat": "14.6626", 
    "lng": "-61.0599", 
    "country": "Martinique", 
    "iso2": "MQ", 
    "admin_name": "", 
    "capital": "", 
    "population": "", 
    "population_proper": ""
  }, 
  {
    "city": "Le Foyer", 
    "lat": "14.6657", 
    "lng": "-61.0632", 
    "country": "Martinique", 
    "iso2": "MQ", 
    "admin_name": "", 
    "capital": "", 
    "population": "", 
    "population_proper": ""
  }, 
  {
    "city": "L’Ermitage", 
    "lat": "14.6663", 
    "lng": "-61.0594", 
    "country": "Martinique", 
    "iso2": "MQ", 
    "admin_name": "", 
    "capital": "", 
    "population": "", 
    "population_proper": ""
  }, 
  {
    "city": "Habitation la Favorite", 
    "lat": "14.6440", 
    "lng": "-61.0336", 
    "country": "Martinique", 
    "iso2": "MQ", 
    "admin_name": "", 
    "capital": "", 
    "population": "", 
    "population_proper": ""
  }, 
  {
    "city": "Canal", 
    "lat": "14.5643", 
    "lng": "-60.9915", 
    "country": "Martinique", 
    "iso2": "MQ", 
    "admin_name": "", 
    "capital": "", 
    "population": "", 
    "population_proper": ""
  }, 
  {
    "city": "Sébastopol", 
    "lat": "14.5995", 
    "lng": "-60.9639", 
    "country": "Martinique", 
    "iso2": "MQ", 
    "admin_name": "", 
    "capital": "", 
    "population": "", 
    "population_proper": ""
  }, 
  {
    "city": "La Richard", 
    "lat": "14.5865", 
    "lng": "-60.9518", 
    "country": "Martinique", 
    "iso2": "MQ", 
    "admin_name": "", 
    "capital": "", 
    "population": "", 
    "population_proper": ""
  }, 
  {
    "city": "Pays Noyé", 
    "lat": "14.5830", 
    "lng": "-60.9801", 
    "country": "Martinique", 
    "iso2": "MQ", 
    "admin_name": "", 
    "capital": "", 
    "population": "", 
    "population_proper": ""
  }, 
  {
    "city": "Génipa", 
    "lat": "14.5562", 
    "lng": "-60.9704", 
    "country": "Martinique", 
    "iso2": "MQ", 
    "admin_name": "", 
    "capital": "", 
    "population": "", 
    "population_proper": ""
  }, 
  {
    "city": "La Beauville", 
    "lat": "14.5822", 
    "lng": "-60.9506", 
    "country": "Martinique", 
    "iso2": "MQ", 
    "admin_name": "", 
    "capital": "", 
    "population": "", 
    "population_proper": ""
  }, 
  {
    "city": "Morne Carette", 
    "lat": "14.5880", 
    "lng": "-60.9624", 
    "country": "Martinique", 
    "iso2": "MQ", 
    "admin_name": "", 
    "capital": "", 
    "population": "", 
    "population_proper": ""
  }, 
  {
    "city": "Californie", 
    "lat": "14.5992", 
    "lng": "-60.9511", 
    "country": "Martinique", 
    "iso2": "MQ", 
    "admin_name": "", 
    "capital": "", 
    "population": "", 
    "population_proper": ""
  }, 
  {
    "city": "Baringthon", 
    "lat": "14.5586", 
    "lng": "-60.9587", 
    "country": "Martinique", 
    "iso2": "MQ", 
    "admin_name": "", 
    "capital": "", 
    "population": "", 
    "population_proper": ""
  }, 
  {
    "city": "La Bonne Mère", 
    "lat": "14.5650", 
    "lng": "-60.9746", 
    "country": "Martinique", 
    "iso2": "MQ", 
    "admin_name": "", 
    "capital": "", 
    "population": "", 
    "population_proper": ""
  }, 
  {
    "city": "La Duchâtel", 
    "lat": "14.5807", 
    "lng": "-60.9427", 
    "country": "Martinique", 
    "iso2": "MQ", 
    "admin_name": "", 
    "capital": "", 
    "population": "", 
    "population_proper": ""
  }, 
  {
    "city": "Fond Brûlé", 
    "lat": "14.5836", 
    "lng": "-60.9602", 
    "country": "Martinique", 
    "iso2": "MQ", 
    "admin_name": "", 
    "capital": "", 
    "population": "", 
    "population_proper": ""
  }, 
  {
    "city": "Bois Neuf", 
    "lat": "14.5833", 
    "lng": "-60.9452", 
    "country": "Martinique", 
    "iso2": "MQ", 
    "admin_name": "", 
    "capital": "", 
    "population": "", 
    "population_proper": ""
  }, 
  {
    "city": "Morne Lapointe", 
    "lat": "14.5838", 
    "lng": "-60.9656", 
    "country": "Martinique", 
    "iso2": "MQ", 
    "admin_name": "", 
    "capital": "", 
    "population": "", 
    "population_proper": ""
  }, 
  {
    "city": "Rivière la Manche", 
    "lat": "14.5651", 
    "lng": "-60.9652", 
    "country": "Martinique", 
    "iso2": "MQ", 
    "admin_name": "", 
    "capital": "", 
    "population": "", 
    "population_proper": ""
  }, 
  {
    "city": "Grande Rochelle", 
    "lat": "14.5864", 
    "lng": "-60.9722", 
    "country": "Martinique", 
    "iso2": "MQ", 
    "admin_name": "", 
    "capital": "", 
    "population": "", 
    "population_proper": ""
  }, 
  {
    "city": "Grande Savane", 
    "lat": "14.5726", 
    "lng": "-60.9504", 
    "country": "Martinique", 
    "iso2": "MQ", 
    "admin_name": "", 
    "capital": "", 
    "population": "", 
    "population_proper": ""
  }, 
  {
    "city": "Fond d’Or", 
    "lat": "14.5969", 
    "lng": "-60.9545", 
    "country": "Martinique", 
    "iso2": "MQ", 
    "admin_name": "", 
    "capital": "", 
    "population": "", 
    "population_proper": ""
  }, 
  {
    "city": "Durivage", 
    "lat": "14.5639", 
    "lng": "-60.9588", 
    "country": "Martinique", 
    "iso2": "MQ", 
    "admin_name": "", 
    "capital": "", 
    "population": "", 
    "population_proper": ""
  }, 
  {
    "city": "Morne Vert", 
    "lat": "14.5892", 
    "lng": "-60.9518", 
    "country": "Martinique", 
    "iso2": "MQ", 
    "admin_name": "", 
    "capital": "", 
    "population": "", 
    "population_proper": ""
  }, 
  {
    "city": "Fond d’Orange", 
    "lat": "14.5919", 
    "lng": "-60.9613", 
    "country": "Martinique", 
    "iso2": "MQ", 
    "admin_name": "", 
    "capital": "", 
    "population": "", 
    "population_proper": ""
  }, 
  {
    "city": "Ducos", 
    "lat": "14.5753", 
    "lng": "-60.9745", 
    "country": "Martinique", 
    "iso2": "MQ", 
    "admin_name": "", 
    "capital": "", 
    "population": "", 
    "population_proper": ""
  }, 
  {
    "city": "La Cocotte", 
    "lat": "14.5704", 
    "lng": "-60.9842", 
    "country": "Martinique", 
    "iso2": "MQ", 
    "admin_name": "", 
    "capital": "", 
    "population": "", 
    "population_proper": ""
  }, 
  {
    "city": "Morne Privat", 
    "lat": "14.5919", 
    "lng": "-60.9488", 
    "country": "Martinique", 
    "iso2": "MQ", 
    "admin_name": "", 
    "capital": "", 
    "population": "", 
    "population_proper": ""
  }, 
  {
    "city": "La Cadeau", 
    "lat": "14.5945", 
    "lng": "-60.9455", 
    "country": "Martinique", 
    "iso2": "MQ", 
    "admin_name": "", 
    "capital": "", 
    "population": "", 
    "population_proper": ""
  }, 
  {
    "city": "Delaine", 
    "lat": "14.5956", 
    "lng": "-60.9691", 
    "country": "Martinique", 
    "iso2": "MQ", 
    "admin_name": "", 
    "capital": "", 
    "population": "", 
    "population_proper": ""
  }, 
  {
    "city": "Quartier Vert-Pré", 
    "lat": "14.5914", 
    "lng": "-60.9752", 
    "country": "Martinique", 
    "iso2": "MQ", 
    "admin_name": "", 
    "capital": "", 
    "population": "", 
    "population_proper": ""
  }, 
  {
    "city": "La Salette", 
    "lat": "14.5853", 
    "lng": "-60.9785", 
    "country": "Martinique", 
    "iso2": "MQ", 
    "admin_name": "", 
    "capital": "", 
    "population": "", 
    "population_proper": ""
  }, 
  {
    "city": "Morne Coco", 
    "lat": "14.5892", 
    "lng": "-60.9752", 
    "country": "Martinique", 
    "iso2": "MQ", 
    "admin_name": "", 
    "capital": "", 
    "population": "", 
    "population_proper": ""
  }, 
  {
    "city": "Bac", 
    "lat": "14.5892", 
    "lng": "-60.9810", 
    "country": "Martinique", 
    "iso2": "MQ", 
    "admin_name": "", 
    "capital": "", 
    "population": "", 
    "population_proper": ""
  }, 
  {
    "city": "La Manzo", 
    "lat": "14.5878", 
    "lng": "-60.9335", 
    "country": "Martinique", 
    "iso2": "MQ", 
    "admin_name": "", 
    "capital": "", 
    "population": "", 
    "population_proper": ""
  }, 
  {
    "city": "Moulin à Vent", 
    "lat": "14.6847", 
    "lng": "-60.9430", 
    "country": "Martinique", 
    "iso2": "MQ", 
    "admin_name": "", 
    "capital": "", 
    "population": "", 
    "population_proper": ""
  }, 
  {
    "city": "Brisse", 
    "lat": "14.6890", 
    "lng": "-60.9666", 
    "country": "Martinique", 
    "iso2": "MQ", 
    "admin_name": "", 
    "capital": "", 
    "population": "", 
    "population_proper": ""
  }, 
  {
    "city": "Lecomte", 
    "lat": "14.6968", 
    "lng": "-60.9479", 
    "country": "Martinique", 
    "iso2": "MQ", 
    "admin_name": "", 
    "capital": "", 
    "population": "", 
    "population_proper": ""
  }, 
  {
    "city": "Gaalon", 
    "lat": "14.6643", 
    "lng": "-60.8894", 
    "country": "Martinique", 
    "iso2": "MQ", 
    "admin_name": "", 
    "capital": "", 
    "population": "", 
    "population_proper": ""
  }, 
  {
    "city": "Rivière Cacao", 
    "lat": "14.6490", 
    "lng": "-60.9424", 
    "country": "Martinique", 
    "iso2": "MQ", 
    "admin_name": "", 
    "capital": "", 
    "population": "", 
    "population_proper": ""
  }, 
  {
    "city": "La Charles", 
    "lat": "14.6970", 
    "lng": "-60.9604", 
    "country": "Martinique", 
    "iso2": "MQ", 
    "admin_name": "", 
    "capital": "", 
    "population": "", 
    "population_proper": ""
  }, 
  {
    "city": "Pontaléry", 
    "lat": "14.6680", 
    "lng": "-60.9425", 
    "country": "Martinique", 
    "iso2": "MQ", 
    "admin_name": "", 
    "capital": "", 
    "population": "", 
    "population_proper": ""
  }, 
  {
    "city": "Pointe Savane", 
    "lat": "14.7001", 
    "lng": "-60.9125", 
    "country": "Martinique", 
    "iso2": "MQ", 
    "admin_name": "", 
    "capital": "", 
    "population": "", 
    "population_proper": ""
  }, 
  {
    "city": "Pointe Rouge", 
    "lat": "14.6975", 
    "lng": "-60.9042", 
    "country": "Martinique", 
    "iso2": "MQ", 
    "admin_name": "", 
    "capital": "", 
    "population": "", 
    "population_proper": ""
  }, 
  {
    "city": "Hubert", 
    "lat": "14.6569", 
    "lng": "-60.9482", 
    "country": "Martinique", 
    "iso2": "MQ", 
    "admin_name": "", 
    "capital": "", 
    "population": "", 
    "population_proper": ""
  }, 
  {
    "city": "Mansarde Catalogne", 
    "lat": "14.6773", 
    "lng": "-60.9470", 
    "country": "Martinique", 
    "iso2": "MQ", 
    "admin_name": "", 
    "capital": "", 
    "population": "", 
    "population_proper": ""
  }, 
  {
    "city": "Le Robert", 
    "lat": "14.6772", 
    "lng": "-60.9395", 
    "country": "Martinique", 
    "iso2": "MQ", 
    "admin_name": "", 
    "capital": "", 
    "population": "", 
    "population_proper": ""
  }, 
  {
    "city": "Four à Chaux", 
    "lat": "14.6591", 
    "lng": "-60.9353", 
    "country": "Martinique", 
    "iso2": "MQ", 
    "admin_name": "", 
    "capital": "", 
    "population": "", 
    "population_proper": ""
  }, 
  {
    "city": "Fond Nicolas", 
    "lat": "14.6398", 
    "lng": "-60.9420", 
    "country": "Martinique", 
    "iso2": "MQ", 
    "admin_name": "", 
    "capital": "", 
    "population": "", 
    "population_proper": ""
  }, 
  {
    "city": "Courbaril", 
    "lat": "14.6726", 
    "lng": "-60.9433", 
    "country": "Martinique", 
    "iso2": "MQ", 
    "admin_name": "", 
    "capital": "", 
    "population": "", 
    "population_proper": ""
  }, 
  {
    "city": "Lestrade", 
    "lat": "14.7000", 
    "lng": "-60.9433", 
    "country": "Martinique", 
    "iso2": "MQ", 
    "admin_name": "", 
    "capital": "", 
    "population": "", 
    "population_proper": ""
  }, 
  {
    "city": "Augrain", 
    "lat": "14.6669", 
    "lng": "-60.9569", 
    "country": "Martinique", 
    "iso2": "MQ", 
    "admin_name": "", 
    "capital": "", 
    "population": "", 
    "population_proper": ""
  }, 
  {
    "city": "Mignot", 
    "lat": "14.6916", 
    "lng": "-60.9629", 
    "country": "Martinique", 
    "iso2": "MQ", 
    "admin_name": "", 
    "capital": "", 
    "population": "", 
    "population_proper": ""
  }, 
  {
    "city": "Bord de Mer", 
    "lat": "14.7067", 
    "lng": "-60.9321", 
    "country": "Martinique", 
    "iso2": "MQ", 
    "admin_name": "", 
    "capital": "", 
    "population": "", 
    "population_proper": ""
  }, 
  {
    "city": "Pointe la Rose", 
    "lat": "14.6521", 
    "lng": "-60.8904", 
    "country": "Martinique", 
    "iso2": "MQ", 
    "admin_name": "", 
    "capital": "", 
    "population": "", 
    "population_proper": ""
  }, 
  {
    "city": "La Collion", 
    "lat": "14.6887", 
    "lng": "-60.9600", 
    "country": "Martinique", 
    "iso2": "MQ", 
    "admin_name": "", 
    "capital": "", 
    "population": "", 
    "population_proper": ""
  }, 
  {
    "city": "L’Heureux", 
    "lat": "14.6843", 
    "lng": "-60.9722", 
    "country": "Martinique", 
    "iso2": "MQ", 
    "admin_name": "", 
    "capital": "", 
    "population": "", 
    "population_proper": ""
  }, 
  {
    "city": "Ména", 
    "lat": "14.6466", 
    "lng": "-60.9428", 
    "country": "Martinique", 
    "iso2": "MQ", 
    "admin_name": "", 
    "capital": "", 
    "population": "", 
    "population_proper": ""
  }, 
  {
    "city": "Duchêne", 
    "lat": "14.6512", 
    "lng": "-60.9500", 
    "country": "Martinique", 
    "iso2": "MQ", 
    "admin_name": "", 
    "capital": "", 
    "population": "", 
    "population_proper": ""
  }, 
  {
    "city": "Pointe Hyacinthe", 
    "lat": "14.6634", 
    "lng": "-60.9045", 
    "country": "Martinique", 
    "iso2": "MQ", 
    "admin_name": "", 
    "capital": "", 
    "population": "", 
    "population_proper": ""
  }, 
  {
    "city": "Bois Neuf", 
    "lat": "14.6870", 
    "lng": "-60.9579", 
    "country": "Martinique", 
    "iso2": "MQ", 
    "admin_name": "", 
    "capital": "", 
    "population": "", 
    "population_proper": ""
  }, 
  {
    "city": "Pointe Lynch", 
    "lat": "14.6830", 
    "lng": "-60.9299", 
    "country": "Martinique", 
    "iso2": "MQ", 
    "admin_name": "", 
    "capital": "", 
    "population": "", 
    "population_proper": ""
  }, 
  {
    "city": "Réunion", 
    "lat": "14.6906", 
    "lng": "-60.9223", 
    "country": "Martinique", 
    "iso2": "MQ", 
    "admin_name": "", 
    "capital": "", 
    "population": "", 
    "population_proper": ""
  }, 
  {
    "city": "Le Sable Blanc", 
    "lat": "14.6637", 
    "lng": "-60.8990", 
    "country": "Martinique", 
    "iso2": "MQ", 
    "admin_name": "", 
    "capital": "", 
    "population": "", 
    "population_proper": ""
  }, 
  {
    "city": "Bonneau", 
    "lat": "14.6939", 
    "lng": "-60.9466", 
    "country": "Martinique", 
    "iso2": "MQ", 
    "admin_name": "", 
    "capital": "", 
    "population": "", 
    "population_proper": ""
  }, 
  {
    "city": "Lazaret", 
    "lat": "14.6965", 
    "lng": "-60.9347", 
    "country": "Martinique", 
    "iso2": "MQ", 
    "admin_name": "", 
    "capital": "", 
    "population": "", 
    "population_proper": ""
  }, 
  {
    "city": "Café", 
    "lat": "14.6999", 
    "lng": "-60.9603", 
    "country": "Martinique", 
    "iso2": "MQ", 
    "admin_name": "", 
    "capital": "", 
    "population": "", 
    "population_proper": ""
  }, 
  {
    "city": "Mont Vert", 
    "lat": "14.6898", 
    "lng": "-60.9533", 
    "country": "Martinique", 
    "iso2": "MQ", 
    "admin_name": "", 
    "capital": "", 
    "population": "", 
    "population_proper": ""
  }, 
  {
    "city": "Marlet", 
    "lat": "14.6631", 
    "lng": "-60.9152", 
    "country": "Martinique", 
    "iso2": "MQ", 
    "admin_name": "", 
    "capital": "", 
    "population": "", 
    "population_proper": ""
  }, 
  {
    "city": "Ermitage", 
    "lat": "14.6851", 
    "lng": "-60.9676", 
    "country": "Martinique", 
    "iso2": "MQ", 
    "admin_name": "", 
    "capital": "", 
    "population": "", 
    "population_proper": ""
  }, 
  {
    "city": "Raisin", 
    "lat": "14.6624", 
    "lng": "-60.9535", 
    "country": "Martinique", 
    "iso2": "MQ", 
    "admin_name": "", 
    "capital": "", 
    "population": "", 
    "population_proper": ""
  }, 
  {
    "city": "Gaschette", 
    "lat": "14.6873", 
    "lng": "-60.9434", 
    "country": "Martinique", 
    "iso2": "MQ", 
    "admin_name": "", 
    "capital": "", 
    "population": "", 
    "population_proper": ""
  }, 
  {
    "city": "Bois Désir", 
    "lat": "14.6888", 
    "lng": "-60.9643", 
    "country": "Martinique", 
    "iso2": "MQ", 
    "admin_name": "", 
    "capital": "", 
    "population": "", 
    "population_proper": ""
  }, 
  {
    "city": "Voltaire", 
    "lat": "14.6808", 
    "lng": "-60.9572", 
    "country": "Martinique", 
    "iso2": "MQ", 
    "admin_name": "", 
    "capital": "", 
    "population": "", 
    "population_proper": ""
  }, 
  {
    "city": "Beauséjour", 
    "lat": "14.6722", 
    "lng": "-60.9599", 
    "country": "Martinique", 
    "iso2": "MQ", 
    "admin_name": "", 
    "capital": "", 
    "population": "", 
    "population_proper": ""
  }, 
  {
    "city": "Boutaud", 
    "lat": "14.6759", 
    "lng": "-60.9732", 
    "country": "Martinique", 
    "iso2": "MQ", 
    "admin_name": "", 
    "capital": "", 
    "population": "", 
    "population_proper": ""
  }, 
  {
    "city": "Zabeth", 
    "lat": "14.6824", 
    "lng": "-60.9671", 
    "country": "Martinique", 
    "iso2": "MQ", 
    "admin_name": "", 
    "capital": "", 
    "population": "", 
    "population_proper": ""
  }, 
  {
    "city": "Berthou", 
    "lat": "14.6619", 
    "lng": "-60.9618", 
    "country": "Martinique", 
    "iso2": "MQ", 
    "admin_name": "", 
    "capital": "", 
    "population": "", 
    "population_proper": ""
  }, 
  {
    "city": "Là-Haut", 
    "lat": "14.6660", 
    "lng": "-60.9627", 
    "country": "Martinique", 
    "iso2": "MQ", 
    "admin_name": "", 
    "capital": "", 
    "population": "", 
    "population_proper": ""
  }, 
  {
    "city": "Bois Rouge", 
    "lat": "14.6046", 
    "lng": "-60.9684", 
    "country": "Martinique", 
    "iso2": "MQ", 
    "admin_name": "", 
    "capital": "", 
    "population": "", 
    "population_proper": ""
  }
]