[
  {
    "city": "Blantyre", 
    "lat": "-15.7861", 
    "lng": "35.0058", 
    "country": "Malawi", 
    "iso2": "MW", 
    "admin_name": "Blantyre", 
    "capital": "admin", 
    "population": "1895973", 
    "population_proper": "1895973"
  }, 
  {
    "city": "Lilongwe", 
    "lat": "-13.9833", 
    "lng": "33.7833", 
    "country": "Malawi", 
    "iso2": "MW", 
    "admin_name": "Lilongwe", 
    "capital": "primary", 
    "population": "781538", 
    "population_proper": "781538"
  }, 
  {
    "city": "Mzuzu", 
    "lat": "-11.4500", 
    "lng": "34.0333", 
    "country": "Malawi", 
    "iso2": "MW", 
    "admin_name": "Mzimba", 
    "capital": "", 
    "population": "150100", 
    "population_proper": "150100"
  }, 
  {
    "city": "Zomba", 
    "lat": "-15.3833", 
    "lng": "35.3333", 
    "country": "Malawi", 
    "iso2": "MW", 
    "admin_name": "Zomba", 
    "capital": "admin", 
    "population": "101140", 
    "population_proper": "101140"
  }, 
  {
    "city": "Salima", 
    "lat": "-13.7829", 
    "lng": "34.4333", 
    "country": "Malawi", 
    "iso2": "MW", 
    "admin_name": "Salima", 
    "capital": "admin", 
    "population": "71181", 
    "population_proper": "30052"
  }, 
  {
    "city": "Nkhotakota", 
    "lat": "-12.9163", 
    "lng": "34.3000", 
    "country": "Malawi", 
    "iso2": "MW", 
    "admin_name": "Nkhotakota", 
    "capital": "admin", 
    "population": "59854", 
    "population_proper": "24865"
  }, 
  {
    "city": "Mangochi", 
    "lat": "-14.4781", 
    "lng": "35.2645", 
    "country": "Malawi", 
    "iso2": "MW", 
    "admin_name": "Mangochi", 
    "capital": "admin", 
    "population": "51429", 
    "population_proper": "51429"
  }, 
  {
    "city": "Karonga", 
    "lat": "-9.9329", 
    "lng": "33.9333", 
    "country": "Malawi", 
    "iso2": "MW", 
    "admin_name": "Karonga", 
    "capital": "admin", 
    "population": "34207", 
    "population_proper": "32444"
  }, 
  {
    "city": "Chiromo", 
    "lat": "-16.5500", 
    "lng": "35.1332", 
    "country": "Malawi", 
    "iso2": "MW", 
    "admin_name": "Nsanje", 
    "capital": "", 
    "population": "25235", 
    "population_proper": "25235"
  }, 
  {
    "city": "Nkhata Bay", 
    "lat": "-11.6333", 
    "lng": "34.3000", 
    "country": "Malawi", 
    "iso2": "MW", 
    "admin_name": "Nkhata Bay", 
    "capital": "admin", 
    "population": "22108", 
    "population_proper": "11721"
  }, 
  {
    "city": "Nsanje", 
    "lat": "-16.9167", 
    "lng": "35.2667", 
    "country": "Malawi", 
    "iso2": "MW", 
    "admin_name": "Nsanje", 
    "capital": "admin", 
    "population": "21774", 
    "population_proper": "21774"
  }, 
  {
    "city": "Mulanje", 
    "lat": "-16.0316", 
    "lng": "35.5000", 
    "country": "Malawi", 
    "iso2": "MW", 
    "admin_name": "Mulanje", 
    "capital": "admin", 
    "population": "20870", 
    "population_proper": "20870"
  }, 
  {
    "city": "Mzimba", 
    "lat": "-11.9000", 
    "lng": "33.6000", 
    "country": "Malawi", 
    "iso2": "MW", 
    "admin_name": "Mzimba", 
    "capital": "admin", 
    "population": "19308", 
    "population_proper": "19308"
  }, 
  {
    "city": "Mchinji", 
    "lat": "-13.8167", 
    "lng": "32.9000", 
    "country": "Malawi", 
    "iso2": "MW", 
    "admin_name": "Mchinji", 
    "capital": "admin", 
    "population": "18305", 
    "population_proper": "18305"
  }, 
  {
    "city": "Dedza", 
    "lat": "-14.3667", 
    "lng": "34.3333", 
    "country": "Malawi", 
    "iso2": "MW", 
    "admin_name": "Dedza", 
    "capital": "admin", 
    "population": "15608", 
    "population_proper": "15608"
  }, 
  {
    "city": "Chitipa", 
    "lat": "-9.7019", 
    "lng": "33.2700", 
    "country": "Malawi", 
    "iso2": "MW", 
    "admin_name": "Chitipa", 
    "capital": "admin", 
    "population": "13412", 
    "population_proper": "8824"
  }, 
  {
    "city": "Mwanza", 
    "lat": "-15.6167", 
    "lng": "34.5167", 
    "country": "Malawi", 
    "iso2": "MW", 
    "admin_name": "Mwanza", 
    "capital": "admin", 
    "population": "11379", 
    "population_proper": "11379"
  }, 
  {
    "city": "Ntcheu", 
    "lat": "-14.8167", 
    "lng": "34.6333", 
    "country": "Malawi", 
    "iso2": "MW", 
    "admin_name": "Ntcheu", 
    "capital": "admin", 
    "population": "10445", 
    "population_proper": "10445"
  }, 
  {
    "city": "Thyolo", 
    "lat": "-16.0667", 
    "lng": "35.1333", 
    "country": "Malawi", 
    "iso2": "MW", 
    "admin_name": "Thyolo", 
    "capital": "admin", 
    "population": "7029", 
    "population_proper": "7029"
  }, 
  {
    "city": "Chiradzulu", 
    "lat": "-15.7167", 
    "lng": "35.2000", 
    "country": "Malawi", 
    "iso2": "MW", 
    "admin_name": "Chiradzulu", 
    "capital": "admin", 
    "population": "1580", 
    "population_proper": "1580"
  }, 
  {
    "city": "Machinga", 
    "lat": "-14.9667", 
    "lng": "35.5167", 
    "country": "Malawi", 
    "iso2": "MW", 
    "admin_name": "Machinga", 
    "capital": "admin", 
    "population": "1418", 
    "population_proper": "1418"
  }, 
  {
    "city": "Rumphi", 
    "lat": "-11.0153", 
    "lng": "33.7722", 
    "country": "Malawi", 
    "iso2": "MW", 
    "admin_name": "Rumphi", 
    "capital": "admin", 
    "population": "", 
    "population_proper": ""
  }, 
  {
    "city": "Balaka", 
    "lat": "-14.9889", 
    "lng": "34.9591", 
    "country": "Malawi", 
    "iso2": "MW", 
    "admin_name": "Balaka", 
    "capital": "admin", 
    "population": "", 
    "population_proper": ""
  }, 
  {
    "city": "Phalombe", 
    "lat": "-15.8000", 
    "lng": "35.6500", 
    "country": "Malawi", 
    "iso2": "MW", 
    "admin_name": "Phalombe", 
    "capital": "admin", 
    "population": "", 
    "population_proper": ""
  }, 
  {
    "city": "Chikwawa", 
    "lat": "-16.0350", 
    "lng": "34.8010", 
    "country": "Malawi", 
    "iso2": "MW", 
    "admin_name": "Chikwawa", 
    "capital": "admin", 
    "population": "", 
    "population_proper": ""
  }, 
  {
    "city": "Kasungu", 
    "lat": "-13.0364", 
    "lng": "33.4822", 
    "country": "Malawi", 
    "iso2": "MW", 
    "admin_name": "Kasungu", 
    "capital": "admin", 
    "population": "", 
    "population_proper": ""
  }, 
  {
    "city": "Dowa", 
    "lat": "-13.6532", 
    "lng": "33.9385", 
    "country": "Malawi", 
    "iso2": "MW", 
    "admin_name": "Dowa", 
    "capital": "admin", 
    "population": "", 
    "population_proper": ""
  }, 
  {
    "city": "Neno", 
    "lat": "-15.3981", 
    "lng": "34.6534", 
    "country": "Malawi", 
    "iso2": "MW", 
    "admin_name": "Neno", 
    "capital": "admin", 
    "population": "", 
    "population_proper": ""
  }, 
  {
    "city": "Ntchisi", 
    "lat": "-13.3753", 
    "lng": "34.0036", 
    "country": "Malawi", 
    "iso2": "MW", 
    "admin_name": "Ntchisi", 
    "capital": "admin", 
    "population": "", 
    "population_proper": ""
  }
]