[
  {
    "city": "Maputo", 
    "lat": "-25.9153", 
    "lng": "32.5764", 
    "country": "Mozambique", 
    "iso2": "MZ", 
    "admin_name": "Maputo", 
    "capital": "primary", 
    "population": "1191613", 
    "population_proper": "1191613"
  }, 
  {
    "city": "Matola", 
    "lat": "-25.9667", 
    "lng": "32.4667", 
    "country": "Mozambique", 
    "iso2": "MZ", 
    "admin_name": "Maputo", 
    "capital": "", 
    "population": "1032197", 
    "population_proper": "1032197"
  }, 
  {
    "city": "Nampula", 
    "lat": "-15.1167", 
    "lng": "39.2667", 
    "country": "Mozambique", 
    "iso2": "MZ", 
    "admin_name": "Nampula", 
    "capital": "admin", 
    "population": "477900", 
    "population_proper": "477900"
  }, 
  {
    "city": "Beira", 
    "lat": "-19.8333", 
    "lng": "34.8500", 
    "country": "Mozambique", 
    "iso2": "MZ", 
    "admin_name": "Sofala", 
    "capital": "admin", 
    "population": "439264", 
    "population_proper": "439264"
  }, 
  {
    "city": "Chimoio", 
    "lat": "-19.1167", 
    "lng": "33.4500", 
    "country": "Mozambique", 
    "iso2": "MZ", 
    "admin_name": "Manica", 
    "capital": "admin", 
    "population": "238976", 
    "population_proper": "238976"
  }, 
  {
    "city": "Cidade de Nacala", 
    "lat": "-14.5500", 
    "lng": "40.6833", 
    "country": "Mozambique", 
    "iso2": "MZ", 
    "admin_name": "Nampula", 
    "capital": "", 
    "population": "206449", 
    "population_proper": "206449"
  }, 
  {
    "city": "Quelimane", 
    "lat": "-17.8764", 
    "lng": "36.8872", 
    "country": "Mozambique", 
    "iso2": "MZ", 
    "admin_name": "Zambézia", 
    "capital": "admin", 
    "population": "192876", 
    "population_proper": "192876"
  }, 
  {
    "city": "Tete", 
    "lat": "-16.1579", 
    "lng": "33.5898", 
    "country": "Mozambique", 
    "iso2": "MZ", 
    "admin_name": "Tete", 
    "capital": "admin", 
    "population": "152909", 
    "population_proper": "152909"
  }, 
  {
    "city": "Lichinga", 
    "lat": "-13.3000", 
    "lng": "35.2456", 
    "country": "Mozambique", 
    "iso2": "MZ", 
    "admin_name": "Niassa", 
    "capital": "admin", 
    "population": "142253", 
    "population_proper": "142253"
  }, 
  {
    "city": "Pemba", 
    "lat": "-12.9667", 
    "lng": "40.5167", 
    "country": "Mozambique", 
    "iso2": "MZ", 
    "admin_name": "Cabo Delgado", 
    "capital": "admin", 
    "population": "141316", 
    "population_proper": "141316"
  }, 
  {
    "city": "Xai-Xai", 
    "lat": "-25.0500", 
    "lng": "33.6500", 
    "country": "Mozambique", 
    "iso2": "MZ", 
    "admin_name": "Gaza", 
    "capital": "admin", 
    "population": "116343", 
    "population_proper": "116343"
  }, 
  {
    "city": "Maxixe", 
    "lat": "-23.8597", 
    "lng": "35.3472", 
    "country": "Mozambique", 
    "iso2": "MZ", 
    "admin_name": "Inhambane", 
    "capital": "", 
    "population": "108824", 
    "population_proper": "108824"
  }, 
  {
    "city": "Dondo", 
    "lat": "-19.6167", 
    "lng": "34.7500", 
    "country": "Mozambique", 
    "iso2": "MZ", 
    "admin_name": "Sofala", 
    "capital": "", 
    "population": "78648", 
    "population_proper": "71787"
  }, 
  {
    "city": "Palma", 
    "lat": "-10.7833", 
    "lng": "40.4833", 
    "country": "Mozambique", 
    "iso2": "MZ", 
    "admin_name": "Cabo Delgado", 
    "capital": "", 
    "population": "75000", 
    "population_proper": "75000"
  }, 
  {
    "city": "Cuamba", 
    "lat": "-14.8200", 
    "lng": "36.5486", 
    "country": "Mozambique", 
    "iso2": "MZ", 
    "admin_name": "Niassa", 
    "capital": "", 
    "population": "73268", 
    "population_proper": "63141"
  }, 
  {
    "city": "Montepuez", 
    "lat": "-13.1167", 
    "lng": "39.0000", 
    "country": "Mozambique", 
    "iso2": "MZ", 
    "admin_name": "Cabo Delgado", 
    "capital": "", 
    "population": "72279", 
    "population_proper": "25803"
  }, 
  {
    "city": "Mocuba", 
    "lat": "-16.8391", 
    "lng": "36.9855", 
    "country": "Mozambique", 
    "iso2": "MZ", 
    "admin_name": "Zambézia", 
    "capital": "", 
    "population": "69045", 
    "population_proper": "69045"
  }, 
  {
    "city": "Mocuba", 
    "lat": "-16.8496", 
    "lng": "38.2600", 
    "country": "Mozambique", 
    "iso2": "MZ", 
    "admin_name": "Zambézia", 
    "capital": "", 
    "population": "68984", 
    "population_proper": "68984"
  }, 
  {
    "city": "Inhambane", 
    "lat": "-23.8650", 
    "lng": "35.3833", 
    "country": "Mozambique", 
    "iso2": "MZ", 
    "admin_name": "Inhambane", 
    "capital": "admin", 
    "population": "63837", 
    "population_proper": "63837"
  }, 
  {
    "city": "Chokwé", 
    "lat": "-24.5333", 
    "lng": "32.9833", 
    "country": "Mozambique", 
    "iso2": "MZ", 
    "admin_name": "Gaza", 
    "capital": "", 
    "population": "63695", 
    "population_proper": "63695"
  }, 
  {
    "city": "Manhiça", 
    "lat": "-25.4000", 
    "lng": "32.8000", 
    "country": "Mozambique", 
    "iso2": "MZ", 
    "admin_name": "Maputo", 
    "capital": "", 
    "population": "60031", 
    "population_proper": "60031"
  }, 
  {
    "city": "Chibuto", 
    "lat": "-24.6867", 
    "lng": "33.5306", 
    "country": "Mozambique", 
    "iso2": "MZ", 
    "admin_name": "Gaza", 
    "capital": "", 
    "population": "58012", 
    "population_proper": "58012"
  }, 
  {
    "city": "António Enes", 
    "lat": "-16.2308", 
    "lng": "39.9105", 
    "country": "Mozambique", 
    "iso2": "MZ", 
    "admin_name": "Nampula", 
    "capital": "", 
    "population": "57835", 
    "population_proper": "57835"
  }, 
  {
    "city": "Moatize", 
    "lat": "-16.1167", 
    "lng": "33.7500", 
    "country": "Mozambique", 
    "iso2": "MZ", 
    "admin_name": "Tete", 
    "capital": "", 
    "population": "42000", 
    "population_proper": "39073"
  }, 
  {
    "city": "Mocímboa da Praia", 
    "lat": "-11.3500", 
    "lng": "40.3333", 
    "country": "Mozambique", 
    "iso2": "MZ", 
    "admin_name": "Cabo Delgado", 
    "capital": "", 
    "population": "30950", 
    "population_proper": "30950"
  }, 
  {
    "city": "Namaacha", 
    "lat": "-25.9667", 
    "lng": "32.0333", 
    "country": "Mozambique", 
    "iso2": "MZ", 
    "admin_name": "Maputo", 
    "capital": "", 
    "population": "29272", 
    "population_proper": "29272"
  }
]