[
  {
    "city": "Paramaribo", 
    "lat": "5.8667", 
    "lng": "-55.1667", 
    "country": "Suriname", 
    "iso2": "SR", 
    "admin_name": "Paramaribo", 
    "capital": "primary", 
    "population": "223757", 
    "population_proper": "223757"
  }, 
  {
    "city": "Cottica", 
    "lat": "3.8547", 
    "lng": "-54.2289", 
    "country": "Suriname", 
    "iso2": "SR", 
    "admin_name": "Sipaliwini", 
    "capital": "", 
    "population": "29210", 
    "population_proper": "20000"
  }, 
  {
    "city": "Nieuw Nickerie", 
    "lat": "5.9261", 
    "lng": "-56.9731", 
    "country": "Suriname", 
    "iso2": "SR", 
    "admin_name": "Nickerie", 
    "capital": "admin", 
    "population": "12818", 
    "population_proper": "12818"
  }, 
  {
    "city": "Brokopondo", 
    "lat": "5.0404", 
    "lng": "-55.0200", 
    "country": "Suriname", 
    "iso2": "SR", 
    "admin_name": "Brokopondo", 
    "capital": "admin", 
    "population": "8340", 
    "population_proper": "4000"
  }, 
  {
    "city": "Moengo", 
    "lat": "5.6167", 
    "lng": "-54.4000", 
    "country": "Suriname", 
    "iso2": "SR", 
    "admin_name": "Marowijne", 
    "capital": "", 
    "population": "8252", 
    "population_proper": "8252"
  }, 
  {
    "city": "Tamanredjo", 
    "lat": "5.7667", 
    "lng": "-55.0000", 
    "country": "Suriname", 
    "iso2": "SR", 
    "admin_name": "Commewijne", 
    "capital": "", 
    "population": "6601", 
    "population_proper": "6601"
  }, 
  {
    "city": "Domburg", 
    "lat": "5.7000", 
    "lng": "-55.0833", 
    "country": "Suriname", 
    "iso2": "SR", 
    "admin_name": "Wanica", 
    "capital": "", 
    "population": "5500", 
    "population_proper": "5500"
  }, 
  {
    "city": "Albina", 
    "lat": "5.5000", 
    "lng": "-54.0500", 
    "country": "Suriname", 
    "iso2": "SR", 
    "admin_name": "Marowijne", 
    "capital": "admin", 
    "population": "5247", 
    "population_proper": "5247"
  }, 
  {
    "city": "Nieuw Amsterdam", 
    "lat": "5.9100", 
    "lng": "-55.0700", 
    "country": "Suriname", 
    "iso2": "SR", 
    "admin_name": "Commewijne", 
    "capital": "admin", 
    "population": "4935", 
    "population_proper": "4935"
  }, 
  {
    "city": "Brownsweg", 
    "lat": "5.0200", 
    "lng": "-55.1700", 
    "country": "Suriname", 
    "iso2": "SR", 
    "admin_name": "Brokopondo", 
    "capital": "", 
    "population": "4582", 
    "population_proper": "2696"
  }, 
  {
    "city": "Groningen", 
    "lat": "5.7970", 
    "lng": "-55.4810", 
    "country": "Suriname", 
    "iso2": "SR", 
    "admin_name": "Saramacca", 
    "capital": "admin", 
    "population": "3216", 
    "population_proper": "3216"
  }, 
  {
    "city": "Wageningen", 
    "lat": "5.7600", 
    "lng": "-56.6653", 
    "country": "Suriname", 
    "iso2": "SR", 
    "admin_name": "Nickerie", 
    "capital": "", 
    "population": "2937", 
    "population_proper": "2937"
  }, 
  {
    "city": "Onverwacht", 
    "lat": "5.6000", 
    "lng": "-55.2000", 
    "country": "Suriname", 
    "iso2": "SR", 
    "admin_name": "Para", 
    "capital": "admin", 
    "population": "2105", 
    "population_proper": "2105"
  }, 
  {
    "city": "Totness", 
    "lat": "5.8904", 
    "lng": "-56.3200", 
    "country": "Suriname", 
    "iso2": "SR", 
    "admin_name": "Coronie", 
    "capital": "admin", 
    "population": "1685", 
    "population_proper": "1251"
  }, 
  {
    "city": "Bigiston", 
    "lat": "5.4122", 
    "lng": "-54.1244", 
    "country": "Suriname", 
    "iso2": "SR", 
    "admin_name": "Marowijne", 
    "capital": "", 
    "population": "361", 
    "population_proper": "361"
  }, 
  {
    "city": "Kwakoegron", 
    "lat": "5.2439", 
    "lng": "-55.3364", 
    "country": "Suriname", 
    "iso2": "SR", 
    "admin_name": "Brokopondo", 
    "capital": "", 
    "population": "263", 
    "population_proper": "263"
  }, 
  {
    "city": "Landsboerderij", 
    "lat": "5.8167", 
    "lng": "-55.2167", 
    "country": "Suriname", 
    "iso2": "SR", 
    "admin_name": "Paramaribo", 
    "capital": "", 
    "population": "", 
    "population_proper": ""
  }, 
  {
    "city": "Lelydorp", 
    "lat": "5.7000", 
    "lng": "-55.2333", 
    "country": "Suriname", 
    "iso2": "SR", 
    "admin_name": "Wanica", 
    "capital": "admin", 
    "population": "", 
    "population_proper": ""
  }, 
  {
    "city": "Clevia", 
    "lat": "5.8618", 
    "lng": "-55.1158", 
    "country": "Suriname", 
    "iso2": "SR", 
    "admin_name": "Commewijne", 
    "capital": "", 
    "population": "", 
    "population_proper": ""
  }, 
  {
    "city": "Magenta", 
    "lat": "5.7805", 
    "lng": "-55.2497", 
    "country": "Suriname", 
    "iso2": "SR", 
    "admin_name": "Wanica", 
    "capital": "", 
    "population": "", 
    "population_proper": ""
  }, 
  {
    "city": "Boma", 
    "lat": "5.7560", 
    "lng": "-55.2809", 
    "country": "Suriname", 
    "iso2": "SR", 
    "admin_name": "Wanica", 
    "capital": "", 
    "population": "", 
    "population_proper": ""
  }, 
  {
    "city": "Tawajari", 
    "lat": "5.7615", 
    "lng": "-55.3246", 
    "country": "Suriname", 
    "iso2": "SR", 
    "admin_name": "Saramacca", 
    "capital": "", 
    "population": "", 
    "population_proper": ""
  }, 
  {
    "city": "Koewarasan", 
    "lat": "5.7699", 
    "lng": "-55.2938", 
    "country": "Suriname", 
    "iso2": "SR", 
    "admin_name": "Wanica", 
    "capital": "", 
    "population": "", 
    "population_proper": ""
  }, 
  {
    "city": "Dorpsgemeente", 
    "lat": "5.7753", 
    "lng": "-55.3117", 
    "country": "Suriname", 
    "iso2": "SR", 
    "admin_name": "Wanica", 
    "capital": "", 
    "population": "", 
    "population_proper": ""
  }, 
  {
    "city": "Vredenburg", 
    "lat": "5.7232", 
    "lng": "-55.1548", 
    "country": "Suriname", 
    "iso2": "SR", 
    "admin_name": "Wanica", 
    "capital": "", 
    "population": "", 
    "population_proper": ""
  }, 
  {
    "city": "Belwarde", 
    "lat": "5.8483", 
    "lng": "-55.0873", 
    "country": "Suriname", 
    "iso2": "SR", 
    "admin_name": "Commewijne", 
    "capital": "", 
    "population": "", 
    "population_proper": ""
  }, 
  {
    "city": "Dordrecht", 
    "lat": "5.8321", 
    "lng": "-55.0863", 
    "country": "Suriname", 
    "iso2": "SR", 
    "admin_name": "Commewijne", 
    "capital": "", 
    "population": "", 
    "population_proper": ""
  }, 
  {
    "city": "Santigron", 
    "lat": "5.6772", 
    "lng": "-55.3403", 
    "country": "Suriname", 
    "iso2": "SR", 
    "admin_name": "Wanica", 
    "capital": "", 
    "population": "", 
    "population_proper": ""
  }, 
  {
    "city": "Alkmaar", 
    "lat": "5.8500", 
    "lng": "-55.0333", 
    "country": "Suriname", 
    "iso2": "SR", 
    "admin_name": "Commewijne", 
    "capital": "", 
    "population": "", 
    "population_proper": ""
  }, 
  {
    "city": "Paradijs", 
    "lat": "5.9167", 
    "lng": "-56.9333", 
    "country": "Suriname", 
    "iso2": "SR", 
    "admin_name": "Nickerie", 
    "capital": "", 
    "population": "", 
    "population_proper": ""
  }, 
  {
    "city": "Powakka", 
    "lat": "5.4492", 
    "lng": "-55.0789", 
    "country": "Suriname", 
    "iso2": "SR", 
    "admin_name": "Para", 
    "capital": "", 
    "population": "", 
    "population_proper": ""
  }, 
  {
    "city": "Friendship", 
    "lat": "5.8856", 
    "lng": "-56.3314", 
    "country": "Suriname", 
    "iso2": "SR", 
    "admin_name": "Coronie", 
    "capital": "", 
    "population": "", 
    "population_proper": ""
  }, 
  {
    "city": "Ricanau Moffo", 
    "lat": "5.6778", 
    "lng": "-54.4239", 
    "country": "Suriname", 
    "iso2": "SR", 
    "admin_name": "Marowijne", 
    "capital": "", 
    "population": "", 
    "population_proper": ""
  }, 
  {
    "city": "Matta", 
    "lat": "5.4525", 
    "lng": "-55.3228", 
    "country": "Suriname", 
    "iso2": "SR", 
    "admin_name": "Para", 
    "capital": "", 
    "population": "", 
    "population_proper": ""
  }, 
  {
    "city": "Aurora", 
    "lat": "4.3833", 
    "lng": "-55.4000", 
    "country": "Suriname", 
    "iso2": "SR", 
    "admin_name": "Sipaliwini", 
    "capital": "", 
    "population": "", 
    "population_proper": ""
  }, 
  {
    "city": "Pinatjarimi", 
    "lat": "5.7936", 
    "lng": "-54.4111", 
    "country": "Suriname", 
    "iso2": "SR", 
    "admin_name": "Marowijne", 
    "capital": "", 
    "population": "", 
    "population_proper": ""
  }, 
  {
    "city": "Lantiwei", 
    "lat": "5.7900", 
    "lng": "-54.4122", 
    "country": "Suriname", 
    "iso2": "SR", 
    "admin_name": "Marowijne", 
    "capital": "", 
    "population": "", 
    "population_proper": ""
  }, 
  {
    "city": "Tamarin", 
    "lat": "5.7719", 
    "lng": "-54.3844", 
    "country": "Suriname", 
    "iso2": "SR", 
    "admin_name": "Marowijne", 
    "capital": "", 
    "population": "", 
    "population_proper": ""
  }, 
  {
    "city": "Pikien Santi", 
    "lat": "5.7853", 
    "lng": "-54.3717", 
    "country": "Suriname", 
    "iso2": "SR", 
    "admin_name": "Marowijne", 
    "capital": "", 
    "population": "", 
    "population_proper": ""
  }, 
  {
    "city": "Mooitakie", 
    "lat": "4.1272", 
    "lng": "-54.6506", 
    "country": "Suriname", 
    "iso2": "SR", 
    "admin_name": "Sipaliwini", 
    "capital": "", 
    "population": "", 
    "population_proper": ""
  }, 
  {
    "city": "Warnakomoponafaja", 
    "lat": "4.6833", 
    "lng": "-55.5667", 
    "country": "Suriname", 
    "iso2": "SR", 
    "admin_name": "Sipaliwini", 
    "capital": "", 
    "population": "", 
    "population_proper": ""
  }, 
  {
    "city": "Calcutta", 
    "lat": "5.8500", 
    "lng": "-55.6833", 
    "country": "Suriname", 
    "iso2": "SR", 
    "admin_name": "Saramacca", 
    "capital": "", 
    "population": "", 
    "population_proper": ""
  }, 
  {
    "city": "Kalebaskr.", 
    "lat": "5.6745", 
    "lng": "-55.8908", 
    "country": "Suriname", 
    "iso2": "SR", 
    "admin_name": "Saramacca", 
    "capital": "", 
    "population": "", 
    "population_proper": ""
  }, 
  {
    "city": "Wasjabo", 
    "lat": "5.2167", 
    "lng": "-57.1833", 
    "country": "Suriname", 
    "iso2": "SR", 
    "admin_name": "Sipaliwini", 
    "capital": "", 
    "population": "", 
    "population_proper": ""
  }, 
  {
    "city": "Appera", 
    "lat": "5.2000", 
    "lng": "-57.1667", 
    "country": "Suriname", 
    "iso2": "SR", 
    "admin_name": "Sipaliwini", 
    "capital": "", 
    "population": "", 
    "population_proper": ""
  }, 
  {
    "city": "Gansee", 
    "lat": "4.8333", 
    "lng": "-55.1000", 
    "country": "Suriname", 
    "iso2": "SR", 
    "admin_name": "Brokopondo", 
    "capital": "", 
    "population": "", 
    "population_proper": ""
  }, 
  {
    "city": "Leonsberg", 
    "lat": "5.8659", 
    "lng": "-55.1062", 
    "country": "Suriname", 
    "iso2": "SR", 
    "admin_name": "Paramaribo", 
    "capital": "", 
    "population": "", 
    "population_proper": ""
  }, 
  {
    "city": "Boxel", 
    "lat": "5.7167", 
    "lng": "-55.1000", 
    "country": "Suriname", 
    "iso2": "SR", 
    "admin_name": "Commewijne", 
    "capital": "", 
    "population": "", 
    "population_proper": ""
  }, 
  {
    "city": "Suzannasdaal", 
    "lat": "5.8667", 
    "lng": "-55.0833", 
    "country": "Suriname", 
    "iso2": "SR", 
    "admin_name": "Commewijne", 
    "capital": "", 
    "population": "", 
    "population_proper": ""
  }, 
  {
    "city": "Mariënburg", 
    "lat": "5.8743", 
    "lng": "-55.0475", 
    "country": "Suriname", 
    "iso2": "SR", 
    "admin_name": "Commewijne", 
    "capital": "", 
    "population": "", 
    "population_proper": ""
  }, 
  {
    "city": "Leliëndaal", 
    "lat": "5.8667", 
    "lng": "-55.0333", 
    "country": "Suriname", 
    "iso2": "SR", 
    "admin_name": "Commewijne", 
    "capital": "", 
    "population": "", 
    "population_proper": ""
  }, 
  {
    "city": "Katwijk", 
    "lat": "5.8529", 
    "lng": "-55.0001", 
    "country": "Suriname", 
    "iso2": "SR", 
    "admin_name": "Commewijne", 
    "capital": "", 
    "population": "", 
    "population_proper": ""
  }, 
  {
    "city": "Hecht en Sterk", 
    "lat": "5.8659", 
    "lng": "-54.9588", 
    "country": "Suriname", 
    "iso2": "SR", 
    "admin_name": "Commewijne", 
    "capital": "", 
    "population": "", 
    "population_proper": ""
  }, 
  {
    "city": "Now Trésor", 
    "lat": "5.8603", 
    "lng": "-55.0057", 
    "country": "Suriname", 
    "iso2": "SR", 
    "admin_name": "Commewijne", 
    "capital": "", 
    "population": "", 
    "population_proper": ""
  }, 
  {
    "city": "Spieringshoek", 
    "lat": "5.8596", 
    "lng": "-54.9728", 
    "country": "Suriname", 
    "iso2": "SR", 
    "admin_name": "Commewijne", 
    "capital": "", 
    "population": "", 
    "population_proper": ""
  }, 
  {
    "city": "Zorgvliet", 
    "lat": "5.8646", 
    "lng": "-55.0348", 
    "country": "Suriname", 
    "iso2": "SR", 
    "admin_name": "Commewijne", 
    "capital": "", 
    "population": "", 
    "population_proper": ""
  }, 
  {
    "city": "Mon Souci", 
    "lat": "5.8733", 
    "lng": "-54.9690", 
    "country": "Suriname", 
    "iso2": "SR", 
    "admin_name": "Commewijne", 
    "capital": "", 
    "population": "", 
    "population_proper": ""
  }, 
  {
    "city": "Kronenburg", 
    "lat": "5.8628", 
    "lng": "-55.0086", 
    "country": "Suriname", 
    "iso2": "SR", 
    "admin_name": "Commewijne", 
    "capital": "", 
    "population": "", 
    "population_proper": ""
  }, 
  {
    "city": "KL Poika", 
    "lat": "5.6814", 
    "lng": "-55.3426", 
    "country": "Suriname", 
    "iso2": "SR", 
    "admin_name": "Wanica", 
    "capital": "", 
    "population": "", 
    "population_proper": ""
  }, 
  {
    "city": "Dirkshoop", 
    "lat": "5.7833", 
    "lng": "-55.4833", 
    "country": "Suriname", 
    "iso2": "SR", 
    "admin_name": "Saramacca", 
    "capital": "", 
    "population": "", 
    "population_proper": ""
  }, 
  {
    "city": "Sidodadi", 
    "lat": "5.7945", 
    "lng": "-55.4957", 
    "country": "Suriname", 
    "iso2": "SR", 
    "admin_name": "Saramacca", 
    "capital": "", 
    "population": "", 
    "population_proper": ""
  }, 
  {
    "city": "Tamba-Redjo", 
    "lat": "5.8380", 
    "lng": "-55.5310", 
    "country": "Suriname", 
    "iso2": "SR", 
    "admin_name": "Saramacca", 
    "capital": "", 
    "population": "", 
    "population_proper": ""
  }, 
  {
    "city": "Haarlem", 
    "lat": "5.6475", 
    "lng": "-55.3433", 
    "country": "Suriname", 
    "iso2": "SR", 
    "admin_name": "Para", 
    "capital": "", 
    "population": "", 
    "population_proper": ""
  }, 
  {
    "city": "Stoepenveer", 
    "lat": "5.8333", 
    "lng": "-55.4667", 
    "country": "Suriname", 
    "iso2": "SR", 
    "admin_name": "Saramacca", 
    "capital": "", 
    "population": "", 
    "population_proper": ""
  }, 
  {
    "city": "Geertruidenberg", 
    "lat": "5.8833", 
    "lng": "-55.0500", 
    "country": "Suriname", 
    "iso2": "SR", 
    "admin_name": "Commewijne", 
    "capital": "", 
    "population": "", 
    "population_proper": ""
  }, 
  {
    "city": "Kabelpont", 
    "lat": "5.8333", 
    "lng": "-55.4500", 
    "country": "Suriname", 
    "iso2": "SR", 
    "admin_name": "Saramacca", 
    "capital": "", 
    "population": "", 
    "population_proper": ""
  }, 
  {
    "city": "Broederschap", 
    "lat": "5.8607", 
    "lng": "-55.5488", 
    "country": "Suriname", 
    "iso2": "SR", 
    "admin_name": "Saramacca", 
    "capital": "", 
    "population": "", 
    "population_proper": ""
  }, 
  {
    "city": "Dampoentoeng", 
    "lat": "5.8167", 
    "lng": "-55.5000", 
    "country": "Suriname", 
    "iso2": "SR", 
    "admin_name": "Saramacca", 
    "capital": "", 
    "population": "", 
    "population_proper": ""
  }, 
  {
    "city": "Waterloo", 
    "lat": "5.9136", 
    "lng": "-56.9522", 
    "country": "Suriname", 
    "iso2": "SR", 
    "admin_name": "Nickerie", 
    "capital": "", 
    "population": "", 
    "population_proper": ""
  }, 
  {
    "city": "Hampton Court", 
    "lat": "5.9000", 
    "lng": "-56.9167", 
    "country": "Suriname", 
    "iso2": "SR", 
    "admin_name": "Nickerie", 
    "capital": "", 
    "population": "", 
    "population_proper": ""
  }, 
  {
    "city": "Glasgow", 
    "lat": "5.9167", 
    "lng": "-56.9167", 
    "country": "Suriname", 
    "iso2": "SR", 
    "admin_name": "Nickerie", 
    "capital": "", 
    "population": "", 
    "population_proper": ""
  }, 
  {
    "city": "Jagtlust", 
    "lat": "5.8077", 
    "lng": "-55.1104", 
    "country": "Suriname", 
    "iso2": "SR", 
    "admin_name": "Commewijne", 
    "capital": "", 
    "population": "", 
    "population_proper": ""
  }, 
  {
    "city": "Tulpenburg", 
    "lat": "5.5667", 
    "lng": "-55.0500", 
    "country": "Suriname", 
    "iso2": "SR", 
    "admin_name": "Commewijne", 
    "capital": "", 
    "population": "", 
    "population_proper": ""
  }, 
  {
    "city": "Wiesawinie", 
    "lat": "5.4338", 
    "lng": "-55.0452", 
    "country": "Suriname", 
    "iso2": "SR", 
    "admin_name": "Para", 
    "capital": "", 
    "population": "", 
    "population_proper": ""
  }, 
  {
    "city": "Carolina", 
    "lat": "5.4000", 
    "lng": "-55.0667", 
    "country": "Suriname", 
    "iso2": "SR", 
    "admin_name": "Para", 
    "capital": "", 
    "population": "", 
    "population_proper": ""
  }, 
  {
    "city": "Carolina", 
    "lat": "5.4416", 
    "lng": "-55.0054", 
    "country": "Suriname", 
    "iso2": "SR", 
    "admin_name": "Para", 
    "capital": "", 
    "population": "", 
    "population_proper": ""
  }, 
  {
    "city": "Waterland", 
    "lat": "5.6667", 
    "lng": "-55.0500", 
    "country": "Suriname", 
    "iso2": "SR", 
    "admin_name": "Para", 
    "capital": "", 
    "population": "", 
    "population_proper": ""
  }, 
  {
    "city": "De Drie Gebroeders", 
    "lat": "5.6000", 
    "lng": "-55.0667", 
    "country": "Suriname", 
    "iso2": "SR", 
    "admin_name": "Commewijne", 
    "capital": "", 
    "population": "", 
    "population_proper": ""
  }, 
  {
    "city": "Watervliet", 
    "lat": "5.5126", 
    "lng": "-55.0543", 
    "country": "Suriname", 
    "iso2": "SR", 
    "admin_name": "Para", 
    "capital": "", 
    "population": "", 
    "population_proper": ""
  }, 
  {
    "city": "Johanna-Margaretha", 
    "lat": "5.8865", 
    "lng": "-55.0396", 
    "country": "Suriname", 
    "iso2": "SR", 
    "admin_name": "Commewijne", 
    "capital": "", 
    "population": "", 
    "population_proper": ""
  }, 
  {
    "city": "La Simplicité", 
    "lat": "5.5287", 
    "lng": "-55.0559", 
    "country": "Suriname", 
    "iso2": "SR", 
    "admin_name": "Para", 
    "capital": "", 
    "population": "", 
    "population_proper": ""
  }, 
  {
    "city": "Joden Savanna", 
    "lat": "5.4203", 
    "lng": "-54.9861", 
    "country": "Suriname", 
    "iso2": "SR", 
    "admin_name": "Para", 
    "capital": "", 
    "population": "", 
    "population_proper": ""
  }, 
  {
    "city": "Smalkalden", 
    "lat": "5.6110", 
    "lng": "-55.0971", 
    "country": "Suriname", 
    "iso2": "SR", 
    "admin_name": "Para", 
    "capital": "", 
    "population": "", 
    "population_proper": ""
  }, 
  {
    "city": "Esterslust", 
    "lat": "5.5162", 
    "lng": "-55.0304", 
    "country": "Suriname", 
    "iso2": "SR", 
    "admin_name": "Commewijne", 
    "capital": "", 
    "population": "", 
    "population_proper": ""
  }, 
  {
    "city": "Onoribo", 
    "lat": "5.5978", 
    "lng": "-55.1419", 
    "country": "Suriname", 
    "iso2": "SR", 
    "admin_name": "Para", 
    "capital": "", 
    "population": "", 
    "population_proper": ""
  }, 
  {
    "city": "GR Chatillon", 
    "lat": "5.6190", 
    "lng": "-55.0730", 
    "country": "Suriname", 
    "iso2": "SR", 
    "admin_name": "Commewijne", 
    "capital": "", 
    "population": "", 
    "population_proper": ""
  }, 
  {
    "city": "Bosland", 
    "lat": "5.0875", 
    "lng": "-54.9726", 
    "country": "Suriname", 
    "iso2": "SR", 
    "admin_name": "Brokopondo", 
    "capital": "", 
    "population": "", 
    "population_proper": ""
  }, 
  {
    "city": "Balin", 
    "lat": "5.0245", 
    "lng": "-54.9923", 
    "country": "Suriname", 
    "iso2": "SR", 
    "admin_name": "Brokopondo", 
    "capital": "", 
    "population": "", 
    "population_proper": ""
  }, 
  {
    "city": "Brokooondo", 
    "lat": "5.0551", 
    "lng": "-54.9812", 
    "country": "Suriname", 
    "iso2": "SR", 
    "admin_name": "Brokopondo", 
    "capital": "", 
    "population": "", 
    "population_proper": ""
  }, 
  {
    "city": "Afobaka", 
    "lat": "4.9938", 
    "lng": "-54.9985", 
    "country": "Suriname", 
    "iso2": "SR", 
    "admin_name": "Brokopondo", 
    "capital": "", 
    "population": "", 
    "population_proper": ""
  }, 
  {
    "city": "Abanna Kondre", 
    "lat": "5.1333", 
    "lng": "-54.9833", 
    "country": "Suriname", 
    "iso2": "SR", 
    "admin_name": "Brokopondo", 
    "capital": "", 
    "population": "", 
    "population_proper": ""
  }, 
  {
    "city": "Paranam", 
    "lat": "5.6072", 
    "lng": "-55.0901", 
    "country": "Suriname", 
    "iso2": "SR", 
    "admin_name": "Para", 
    "capital": "", 
    "population": "", 
    "population_proper": ""
  }, 
  {
    "city": "Berendslust", 
    "lat": "5.5923", 
    "lng": "-55.0432", 
    "country": "Suriname", 
    "iso2": "SR", 
    "admin_name": "Commewijne", 
    "capital": "", 
    "population": "", 
    "population_proper": ""
  }, 
  {
    "city": "KL Chatillon", 
    "lat": "5.6507", 
    "lng": "-55.0514", 
    "country": "Suriname", 
    "iso2": "SR", 
    "admin_name": "Commewijne", 
    "capital": "", 
    "population": "", 
    "population_proper": ""
  }, 
  {
    "city": "Slootwijk", 
    "lat": "5.8349", 
    "lng": "-54.8732", 
    "country": "Suriname", 
    "iso2": "SR", 
    "admin_name": "Commewijne", 
    "capital": "", 
    "population": "", 
    "population_proper": ""
  }, 
  {
    "city": "Potribo", 
    "lat": "5.7330", 
    "lng": "-54.7571", 
    "country": "Suriname", 
    "iso2": "SR", 
    "admin_name": "Commewijne", 
    "capital": "", 
    "population": "", 
    "population_proper": ""
  }, 
  {
    "city": "Bamboesi", 
    "lat": "5.5254", 
    "lng": "-54.0361", 
    "country": "Suriname", 
    "iso2": "SR", 
    "admin_name": "Marowijne", 
    "capital": "", 
    "population": "", 
    "population_proper": ""
  }, 
  {
    "city": "Papatamkondre", 
    "lat": "5.4822", 
    "lng": "-54.0746", 
    "country": "Suriname", 
    "iso2": "SR", 
    "admin_name": "Marowijne", 
    "capital": "", 
    "population": "", 
    "population_proper": ""
  }, 
  {
    "city": "Akroikondre", 
    "lat": "5.4603", 
    "lng": "-54.0941", 
    "country": "Suriname", 
    "iso2": "SR", 
    "admin_name": "Marowijne", 
    "capital": "", 
    "population": "", 
    "population_proper": ""
  }, 
  {
    "city": "Tapahoekoe", 
    "lat": "5.5333", 
    "lng": "-54.0333", 
    "country": "Suriname", 
    "iso2": "SR", 
    "admin_name": "Marowijne", 
    "capital": "", 
    "population": "", 
    "population_proper": ""
  }, 
  {
    "city": "Onikaikondre", 
    "lat": "5.4500", 
    "lng": "-54.1000", 
    "country": "Suriname", 
    "iso2": "SR", 
    "admin_name": "Marowijne", 
    "capital": "", 
    "population": "", 
    "population_proper": ""
  }
]