[
  {
    "city": "Philipsburg", 
    "lat": "18.0256", 
    "lng": "-63.0492", 
    "country": "Sint Maarten", 
    "iso2": "SX", 
    "admin_name": "", 
    "capital": "primary", 
    "population": "", 
    "population_proper": ""
  }, 
  {
    "city": "Middle Region", 
    "lat": "18.0442", 
    "lng": "-63.0443", 
    "country": "Sint Maarten", 
    "iso2": "SX", 
    "admin_name": "", 
    "capital": "", 
    "population": "", 
    "population_proper": ""
  }, 
  {
    "city": "Dutch Quarter", 
    "lat": "18.0487", 
    "lng": "-63.0483", 
    "country": "Sint Maarten", 
    "iso2": "SX", 
    "admin_name": "", 
    "capital": "", 
    "population": "", 
    "population_proper": ""
  }, 
  {
    "city": "Nazareth", 
    "lat": "18.0544", 
    "lng": "-63.0493", 
    "country": "Sint Maarten", 
    "iso2": "SX", 
    "admin_name": "", 
    "capital": "", 
    "population": "", 
    "population_proper": ""
  }, 
  {
    "city": "Zorg en Rust", 
    "lat": "18.0516", 
    "lng": "-63.0491", 
    "country": "Sint Maarten", 
    "iso2": "SX", 
    "admin_name": "", 
    "capital": "", 
    "population": "", 
    "population_proper": ""
  }, 
  {
    "city": "Union Farm", 
    "lat": "18.0527", 
    "lng": "-63.0465", 
    "country": "Sint Maarten", 
    "iso2": "SX", 
    "admin_name": "", 
    "capital": "", 
    "population": "", 
    "population_proper": ""
  }, 
  {
    "city": "Ebenezer", 
    "lat": "18.0555", 
    "lng": "-63.0568", 
    "country": "Sint Maarten", 
    "iso2": "SX", 
    "admin_name": "", 
    "capital": "", 
    "population": "", 
    "population_proper": ""
  }, 
  {
    "city": "Mont William Hill", 
    "lat": "18.0458", 
    "lng": "-63.0500", 
    "country": "Sint Maarten", 
    "iso2": "SX", 
    "admin_name": "", 
    "capital": "", 
    "population": "", 
    "population_proper": ""
  }, 
  {
    "city": "Saunders", 
    "lat": "18.0417", 
    "lng": "-63.0567", 
    "country": "Sint Maarten", 
    "iso2": "SX", 
    "admin_name": "", 
    "capital": "", 
    "population": "", 
    "population_proper": ""
  }, 
  {
    "city": "Claude Estate", 
    "lat": "18.0424", 
    "lng": "-63.0514", 
    "country": "Sint Maarten", 
    "iso2": "SX", 
    "admin_name": "", 
    "capital": "", 
    "population": "", 
    "population_proper": ""
  }, 
  {
    "city": "Belvédère", 
    "lat": "18.0556", 
    "lng": "-63.0374", 
    "country": "Sint Maarten", 
    "iso2": "SX", 
    "admin_name": "", 
    "capital": "", 
    "population": "", 
    "population_proper": ""
  }, 
  {
    "city": "Retreat Estate", 
    "lat": "18.0468", 
    "lng": "-63.0658", 
    "country": "Sint Maarten", 
    "iso2": "SX", 
    "admin_name": "", 
    "capital": "", 
    "population": "", 
    "population_proper": ""
  }, 
  {
    "city": "Duth Cul de Sac", 
    "lat": "18.0387", 
    "lng": "-63.0654", 
    "country": "Sint Maarten", 
    "iso2": "SX", 
    "admin_name": "", 
    "capital": "", 
    "population": "", 
    "population_proper": ""
  }, 
  {
    "city": "Saint James", 
    "lat": "18.0463", 
    "lng": "-63.0383", 
    "country": "Sint Maarten", 
    "iso2": "SX", 
    "admin_name": "", 
    "capital": "", 
    "population": "", 
    "population_proper": ""
  }, 
  {
    "city": "Lower Prince’s Quarter", 
    "lat": "18.0499", 
    "lng": "-63.0379", 
    "country": "Sint Maarten", 
    "iso2": "SX", 
    "admin_name": "", 
    "capital": "", 
    "population": "", 
    "population_proper": ""
  }, 
  {
    "city": "Waymouth Hills Mildrum", 
    "lat": "18.0593", 
    "lng": "-63.0570", 
    "country": "Sint Maarten", 
    "iso2": "SX", 
    "admin_name": "", 
    "capital": "", 
    "population": "", 
    "population_proper": ""
  }, 
  {
    "city": "St. Peters", 
    "lat": "18.0532", 
    "lng": "-63.0717", 
    "country": "Sint Maarten", 
    "iso2": "SX", 
    "admin_name": "", 
    "capital": "", 
    "population": "", 
    "population_proper": ""
  }, 
  {
    "city": "Madame’s Estate", 
    "lat": "18.0403", 
    "lng": "-63.0495", 
    "country": "Sint Maarten", 
    "iso2": "SX", 
    "admin_name": "", 
    "capital": "", 
    "population": "", 
    "population_proper": ""
  }, 
  {
    "city": "Over the Pond", 
    "lat": "18.0380", 
    "lng": "-63.0437", 
    "country": "Sint Maarten", 
    "iso2": "SX", 
    "admin_name": "", 
    "capital": "", 
    "population": "", 
    "population_proper": ""
  }, 
  {
    "city": "Industrie", 
    "lat": "18.0411", 
    "lng": "-63.0697", 
    "country": "Sint Maarten", 
    "iso2": "SX", 
    "admin_name": "", 
    "capital": "", 
    "population": "", 
    "population_proper": ""
  }, 
  {
    "city": "The Villa", 
    "lat": "18.0311", 
    "lng": "-63.0600", 
    "country": "Sint Maarten", 
    "iso2": "SX", 
    "admin_name": "", 
    "capital": "", 
    "population": "", 
    "population_proper": ""
  }, 
  {
    "city": "Welgeleden", 
    "lat": "18.0310", 
    "lng": "-63.0652", 
    "country": "Sint Maarten", 
    "iso2": "SX", 
    "admin_name": "", 
    "capital": "", 
    "population": "", 
    "population_proper": ""
  }, 
  {
    "city": "Rabbit Hill", 
    "lat": "18.0243", 
    "lng": "-63.0616", 
    "country": "Sint Maarten", 
    "iso2": "SX", 
    "admin_name": "", 
    "capital": "", 
    "population": "", 
    "population_proper": ""
  }, 
  {
    "city": "Koolbaai", 
    "lat": "18.0333", 
    "lng": "-63.0667", 
    "country": "Sint Maarten", 
    "iso2": "SX", 
    "admin_name": "", 
    "capital": "", 
    "population": "", 
    "population_proper": ""
  }, 
  {
    "city": "Prospect Farm", 
    "lat": "18.0333", 
    "lng": "-63.0667", 
    "country": "Sint Maarten", 
    "iso2": "SX", 
    "admin_name": "", 
    "capital": "", 
    "population": "", 
    "population_proper": ""
  }, 
  {
    "city": "Reward", 
    "lat": "18.0590", 
    "lng": "-63.0644", 
    "country": "Sint Maarten", 
    "iso2": "SX", 
    "admin_name": "", 
    "capital": "", 
    "population": "", 
    "population_proper": ""
  }, 
  {
    "city": "Trial", 
    "lat": "18.0333", 
    "lng": "-63.0500", 
    "country": "Sint Maarten", 
    "iso2": "SX", 
    "admin_name": "", 
    "capital": "", 
    "population": "", 
    "population_proper": ""
  }, 
  {
    "city": "Rockland", 
    "lat": "18.0333", 
    "lng": "-63.0500", 
    "country": "Sint Maarten", 
    "iso2": "SX", 
    "admin_name": "", 
    "capital": "", 
    "population": "", 
    "population_proper": ""
  }
]