[
  {
    "city": "Manzini", 
    "lat": "-26.4833", 
    "lng": "31.3667", 
    "country": "Swaziland", 
    "iso2": "SZ", 
    "admin_name": "Manzini", 
    "capital": "admin", 
    "population": "110508", 
    "population_proper": "110508"
  }, 
  {
    "city": "Mbabane", 
    "lat": "-26.3208", 
    "lng": "31.1617", 
    "country": "Swaziland", 
    "iso2": "SZ", 
    "admin_name": "Hhohho", 
    "capital": "primary", 
    "population": "94874", 
    "population_proper": "94874"
  }, 
  {
    "city": "Mhlume", 
    "lat": "-26.0333", 
    "lng": "31.8500", 
    "country": "Swaziland", 
    "iso2": "SZ", 
    "admin_name": "Lubombo", 
    "capital": "", 
    "population": "7761", 
    "population_proper": "7761"
  }, 
  {
    "city": "Siteki", 
    "lat": "-26.4500", 
    "lng": "31.9500", 
    "country": "Swaziland", 
    "iso2": "SZ", 
    "admin_name": "Lubombo", 
    "capital": "admin", 
    "population": "6152", 
    "population_proper": "6152"
  }, 
  {
    "city": "Lobamba", 
    "lat": "-26.4465", 
    "lng": "31.2064", 
    "country": "Swaziland", 
    "iso2": "SZ", 
    "admin_name": "Hhohho", 
    "capital": "primary", 
    "population": "5800", 
    "population_proper": "5800"
  }, 
  {
    "city": "Lavumisa", 
    "lat": "-27.3167", 
    "lng": "31.9000", 
    "country": "Swaziland", 
    "iso2": "SZ", 
    "admin_name": "Shiselweni", 
    "capital": "", 
    "population": "3695", 
    "population_proper": "3695"
  }, 
  {
    "city": "Hlatikulu", 
    "lat": "-26.9667", 
    "lng": "31.3167", 
    "country": "Swaziland", 
    "iso2": "SZ", 
    "admin_name": "Shiselweni", 
    "capital": "", 
    "population": "2748", 
    "population_proper": "2748"
  }, 
  {
    "city": "Nhlangano", 
    "lat": "-27.1167", 
    "lng": "31.2000", 
    "country": "Swaziland", 
    "iso2": "SZ", 
    "admin_name": "Shiselweni", 
    "capital": "admin", 
    "population": "", 
    "population_proper": ""
  }, 
  {
    "city": "Kwaluseni", 
    "lat": "-26.4833", 
    "lng": "31.3333", 
    "country": "Swaziland", 
    "iso2": "SZ", 
    "admin_name": "Manzini", 
    "capital": "", 
    "population": "", 
    "population_proper": ""
  }, 
  {
    "city": "Matsapha", 
    "lat": "-26.5167", 
    "lng": "31.3167", 
    "country": "Swaziland", 
    "iso2": "SZ", 
    "admin_name": "Manzini", 
    "capital": "", 
    "population": "", 
    "population_proper": ""
  }, 
  {
    "city": "Ezulwini", 
    "lat": "-26.4000", 
    "lng": "31.1667", 
    "country": "Swaziland", 
    "iso2": "SZ", 
    "admin_name": "Hhohho", 
    "capital": "", 
    "population": "", 
    "population_proper": ""
  }, 
  {
    "city": "Nkanni", 
    "lat": "-26.4500", 
    "lng": "31.2167", 
    "country": "Swaziland", 
    "iso2": "SZ", 
    "admin_name": "Hhohho", 
    "capital": "", 
    "population": "", 
    "population_proper": ""
  }, 
  {
    "city": "Hluti", 
    "lat": "-27.2167", 
    "lng": "31.6167", 
    "country": "Swaziland", 
    "iso2": "SZ", 
    "admin_name": "Shiselweni", 
    "capital": "", 
    "population": "", 
    "population_proper": ""
  }, 
  {
    "city": "Sandlane", 
    "lat": "-26.5667", 
    "lng": "30.7833", 
    "country": "Swaziland", 
    "iso2": "SZ", 
    "admin_name": "Manzini", 
    "capital": "", 
    "population": "", 
    "population_proper": ""
  }, 
  {
    "city": "Bulembu", 
    "lat": "-25.9500", 
    "lng": "31.1333", 
    "country": "Swaziland", 
    "iso2": "SZ", 
    "admin_name": "Hhohho", 
    "capital": "", 
    "population": "", 
    "population_proper": ""
  }, 
  {
    "city": "Nsoko", 
    "lat": "-27.0333", 
    "lng": "31.9500", 
    "country": "Swaziland", 
    "iso2": "SZ", 
    "admin_name": "Lubombo", 
    "capital": "", 
    "population": "", 
    "population_proper": ""
  }, 
  {
    "city": "Sicunusa", 
    "lat": "-26.8667", 
    "lng": "30.9500", 
    "country": "Swaziland", 
    "iso2": "SZ", 
    "admin_name": "Shiselweni", 
    "capital": "", 
    "population": "", 
    "population_proper": ""
  }, 
  {
    "city": "Gege", 
    "lat": "-26.9500", 
    "lng": "31.0167", 
    "country": "Swaziland", 
    "iso2": "SZ", 
    "admin_name": "Shiselweni", 
    "capital": "", 
    "population": "", 
    "population_proper": ""
  }, 
  {
    "city": "Mhlumeni", 
    "lat": "-26.2500", 
    "lng": "32.1000", 
    "country": "Swaziland", 
    "iso2": "SZ", 
    "admin_name": "Lubombo", 
    "capital": "", 
    "population": "", 
    "population_proper": ""
  }, 
  {
    "city": "Skombeni", 
    "lat": "-26.4000", 
    "lng": "31.3500", 
    "country": "Swaziland", 
    "iso2": "SZ", 
    "admin_name": "Manzini", 
    "capital": "", 
    "population": "", 
    "population_proper": ""
  }, 
  {
    "city": "Dwaleni", 
    "lat": "-27.1667", 
    "lng": "31.2667", 
    "country": "Swaziland", 
    "iso2": "SZ", 
    "admin_name": "Shiselweni", 
    "capital": "", 
    "population": "", 
    "population_proper": ""
  }, 
  {
    "city": "Malkerns", 
    "lat": "-26.5667", 
    "lng": "31.1833", 
    "country": "Swaziland", 
    "iso2": "SZ", 
    "admin_name": "Manzini", 
    "capital": "", 
    "population": "", 
    "population_proper": ""
  }, 
  {
    "city": "Mahlanya", 
    "lat": "-26.5000", 
    "lng": "31.2833", 
    "country": "Swaziland", 
    "iso2": "SZ", 
    "admin_name": "Manzini", 
    "capital": "", 
    "population": "", 
    "population_proper": ""
  }, 
  {
    "city": "Luyengo", 
    "lat": "-26.5333", 
    "lng": "31.2333", 
    "country": "Swaziland", 
    "iso2": "SZ", 
    "admin_name": "Manzini", 
    "capital": "", 
    "population": "", 
    "population_proper": ""
  }, 
  {
    "city": "Usutu", 
    "lat": "-26.5833", 
    "lng": "31.1833", 
    "country": "Swaziland", 
    "iso2": "SZ", 
    "admin_name": "Manzini", 
    "capital": "", 
    "population": "", 
    "population_proper": ""
  }, 
  {
    "city": "Mahamba", 
    "lat": "-27.1000", 
    "lng": "31.0833", 
    "country": "Swaziland", 
    "iso2": "SZ", 
    "admin_name": "Shiselweni", 
    "capital": "", 
    "population": "", 
    "population_proper": ""
  }, 
  {
    "city": "Horo", 
    "lat": "-25.7500", 
    "lng": "31.4167", 
    "country": "Swaziland", 
    "iso2": "SZ", 
    "admin_name": "Hhohho", 
    "capital": "", 
    "population": "", 
    "population_proper": ""
  }, 
  {
    "city": "Darkton", 
    "lat": "-26.2333", 
    "lng": "31.0333", 
    "country": "Swaziland", 
    "iso2": "SZ", 
    "admin_name": "Hhohho", 
    "capital": "", 
    "population": "", 
    "population_proper": ""
  }, 
  {
    "city": "Macnab", 
    "lat": "-26.4167", 
    "lng": "31.5833", 
    "country": "Swaziland", 
    "iso2": "SZ", 
    "admin_name": "Lubombo", 
    "capital": "", 
    "population": "", 
    "population_proper": ""
  }, 
  {
    "city": "Herefords", 
    "lat": "-25.8333", 
    "lng": "31.5000", 
    "country": "Swaziland", 
    "iso2": "SZ", 
    "admin_name": "Hhohho", 
    "capital": "", 
    "population": "", 
    "population_proper": ""
  }, 
  {
    "city": "Ngonini", 
    "lat": "-25.7667", 
    "lng": "31.3833", 
    "country": "Swaziland", 
    "iso2": "SZ", 
    "admin_name": "Hhohho", 
    "capital": "", 
    "population": "", 
    "population_proper": ""
  }, 
  {
    "city": "Lomati", 
    "lat": "-25.8167", 
    "lng": "31.3500", 
    "country": "Swaziland", 
    "iso2": "SZ", 
    "admin_name": "Hhohho", 
    "capital": "", 
    "population": "", 
    "population_proper": ""
  }, 
  {
    "city": "Mhlosheni", 
    "lat": "-27.1833", 
    "lng": "31.3833", 
    "country": "Swaziland", 
    "iso2": "SZ", 
    "admin_name": "Shiselweni", 
    "capital": "", 
    "population": "", 
    "population_proper": ""
  }, 
  {
    "city": "Forbes Reef", 
    "lat": "-26.1667", 
    "lng": "31.1000", 
    "country": "Swaziland", 
    "iso2": "SZ", 
    "admin_name": "Hhohho", 
    "capital": "", 
    "population": "", 
    "population_proper": ""
  }, 
  {
    "city": "Mooihoek", 
    "lat": "-26.9667", 
    "lng": "31.4667", 
    "country": "Swaziland", 
    "iso2": "SZ", 
    "admin_name": "Shiselweni", 
    "capital": "", 
    "population": "", 
    "population_proper": ""
  }, 
  {
    "city": "Bennets", 
    "lat": "-25.9500", 
    "lng": "31.5167", 
    "country": "Swaziland", 
    "iso2": "SZ", 
    "admin_name": "Hhohho", 
    "capital": "", 
    "population": "", 
    "population_proper": ""
  }, 
  {
    "city": "Balegane", 
    "lat": "-26.1000", 
    "lng": "31.5667", 
    "country": "Swaziland", 
    "iso2": "SZ", 
    "admin_name": "Hhohho", 
    "capital": "", 
    "population": "", 
    "population_proper": ""
  }, 
  {
    "city": "Madlangampisi", 
    "lat": "-26.0833", 
    "lng": "31.5500", 
    "country": "Swaziland", 
    "iso2": "SZ", 
    "admin_name": "Hhohho", 
    "capital": "", 
    "population": "", 
    "population_proper": ""
  }
]