[
  {
    "city": "Dushanbe", 
    "lat": "38.5731", 
    "lng": "68.7864", 
    "country": "Tajikistan", 
    "iso2": "TJ", 
    "admin_name": "Dushanbe", 
    "capital": "primary", 
    "population": "778500", 
    "population_proper": "778500"
  }, 
  {
    "city": "Khŭjand", 
    "lat": "40.2833", 
    "lng": "69.6167", 
    "country": "Tajikistan", 
    "iso2": "TJ", 
    "admin_name": "Sughd", 
    "capital": "admin", 
    "population": "181600", 
    "population_proper": "181600"
  }, 
  {
    "city": "Kŭlob", 
    "lat": "37.9119", 
    "lng": "69.7808", 
    "country": "Tajikistan", 
    "iso2": "TJ", 
    "admin_name": "Khatlon", 
    "capital": "minor", 
    "population": "95000", 
    "population_proper": "95000"
  }, 
  {
    "city": "Bokhtar", 
    "lat": "37.8364", 
    "lng": "68.7803", 
    "country": "Tajikistan", 
    "iso2": "TJ", 
    "admin_name": "Khatlon", 
    "capital": "admin", 
    "population": "75450", 
    "population_proper": "75450"
  }, 
  {
    "city": "Istaravshan", 
    "lat": "39.9108", 
    "lng": "69.0064", 
    "country": "Tajikistan", 
    "iso2": "TJ", 
    "admin_name": "Sughd", 
    "capital": "minor", 
    "population": "57400", 
    "population_proper": "57400"
  }, 
  {
    "city": "Konibodom", 
    "lat": "40.2833", 
    "lng": "70.4167", 
    "country": "Tajikistan", 
    "iso2": "TJ", 
    "admin_name": "Sughd", 
    "capital": "minor", 
    "population": "50400", 
    "population_proper": "50400"
  }, 
  {
    "city": "Tursunzoda", 
    "lat": "38.5108", 
    "lng": "68.2303", 
    "country": "Tajikistan", 
    "iso2": "TJ", 
    "admin_name": "Nohiyahoi Tobei Jumhurí", 
    "capital": "minor", 
    "population": "46700", 
    "population_proper": "46700"
  }, 
  {
    "city": "Vahdat", 
    "lat": "38.5531", 
    "lng": "69.0197", 
    "country": "Tajikistan", 
    "iso2": "TJ", 
    "admin_name": "Nohiyahoi Tobei Jumhurí", 
    "capital": "minor", 
    "population": "40600", 
    "population_proper": "40600"
  }, 
  {
    "city": "Isfara", 
    "lat": "40.1167", 
    "lng": "70.6333", 
    "country": "Tajikistan", 
    "iso2": "TJ", 
    "admin_name": "Sughd", 
    "capital": "minor", 
    "population": "40000", 
    "population_proper": "40000"
  }, 
  {
    "city": "Panjakent", 
    "lat": "39.5031", 
    "lng": "67.6150", 
    "country": "Tajikistan", 
    "iso2": "TJ", 
    "admin_name": "Sughd", 
    "capital": "minor", 
    "population": "33000", 
    "population_proper": "33000"
  }, 
  {
    "city": "Khorugh", 
    "lat": "37.4917", 
    "lng": "71.5575", 
    "country": "Tajikistan", 
    "iso2": "TJ", 
    "admin_name": "Kŭhistoni Badakhshon", 
    "capital": "admin", 
    "population": "28098", 
    "population_proper": "28098"
  }, 
  {
    "city": "Hisor", 
    "lat": "38.5264", 
    "lng": "68.5381", 
    "country": "Tajikistan", 
    "iso2": "TJ", 
    "admin_name": "Nohiyahoi Tobei Jumhurí", 
    "capital": "minor", 
    "population": "23200", 
    "population_proper": "23200"
  }, 
  {
    "city": "Norak", 
    "lat": "38.3883", 
    "lng": "69.3250", 
    "country": "Tajikistan", 
    "iso2": "TJ", 
    "admin_name": "Khatlon", 
    "capital": "minor", 
    "population": "18950", 
    "population_proper": "18950"
  }, 
  {
    "city": "Shahriston", 
    "lat": "39.7667", 
    "lng": "68.8167", 
    "country": "Tajikistan", 
    "iso2": "TJ", 
    "admin_name": "Sughd", 
    "capital": "minor", 
    "population": "16295", 
    "population_proper": "16295"
  }, 
  {
    "city": "Abdurahmoni Jomí", 
    "lat": "37.9794", 
    "lng": "68.6890", 
    "country": "Tajikistan", 
    "iso2": "TJ", 
    "admin_name": "Khatlon", 
    "capital": "minor", 
    "population": "8925", 
    "population_proper": "8925"
  }, 
  {
    "city": "Ishqoshim", 
    "lat": "36.7272", 
    "lng": "71.6117", 
    "country": "Tajikistan", 
    "iso2": "TJ", 
    "admin_name": "Kŭhistoni Badakhshon", 
    "capital": "minor", 
    "population": "6567", 
    "population_proper": "6567"
  }, 
  {
    "city": "Levakant", 
    "lat": "37.8714", 
    "lng": "68.9223", 
    "country": "Tajikistan", 
    "iso2": "TJ", 
    "admin_name": "Khatlon", 
    "capital": "minor", 
    "population": "", 
    "population_proper": ""
  }, 
  {
    "city": "Vakhsh", 
    "lat": "37.7149", 
    "lng": "68.8346", 
    "country": "Tajikistan", 
    "iso2": "TJ", 
    "admin_name": "Khatlon", 
    "capital": "minor", 
    "population": "", 
    "population_proper": ""
  }, 
  {
    "city": "Proletar", 
    "lat": "40.1671", 
    "lng": "69.5016", 
    "country": "Tajikistan", 
    "iso2": "TJ", 
    "admin_name": "Sughd", 
    "capital": "minor", 
    "population": "", 
    "population_proper": ""
  }, 
  {
    "city": "Nov", 
    "lat": "40.1522", 
    "lng": "69.3708", 
    "country": "Tajikistan", 
    "iso2": "TJ", 
    "admin_name": "Sughd", 
    "capital": "minor", 
    "population": "", 
    "population_proper": ""
  }, 
  {
    "city": "Ismoili Somoní", 
    "lat": "37.7663", 
    "lng": "68.8013", 
    "country": "Tajikistan", 
    "iso2": "TJ", 
    "admin_name": "Khatlon", 
    "capital": "minor", 
    "population": "", 
    "population_proper": ""
  }, 
  {
    "city": "Hulbuk", 
    "lat": "37.8054", 
    "lng": "69.6452", 
    "country": "Tajikistan", 
    "iso2": "TJ", 
    "admin_name": "Khatlon", 
    "capital": "minor", 
    "population": "", 
    "population_proper": ""
  }, 
  {
    "city": "Somoniyon", 
    "lat": "38.4417", 
    "lng": "68.7746", 
    "country": "Tajikistan", 
    "iso2": "TJ", 
    "admin_name": "Nohiyahoi Tobei Jumhurí", 
    "capital": "minor", 
    "population": "", 
    "population_proper": ""
  }, 
  {
    "city": "Yovon", 
    "lat": "38.3141", 
    "lng": "69.0378", 
    "country": "Tajikistan", 
    "iso2": "TJ", 
    "admin_name": "Khatlon", 
    "capital": "minor", 
    "population": "", 
    "population_proper": ""
  }, 
  {
    "city": "Kolkhozobod", 
    "lat": "37.5882", 
    "lng": "68.6589", 
    "country": "Tajikistan", 
    "iso2": "TJ", 
    "admin_name": "Khatlon", 
    "capital": "minor", 
    "population": "", 
    "population_proper": ""
  }, 
  {
    "city": "Dŭstí", 
    "lat": "37.3481", 
    "lng": "68.6640", 
    "country": "Tajikistan", 
    "iso2": "TJ", 
    "admin_name": "Khatlon", 
    "capital": "minor", 
    "population": "", 
    "population_proper": ""
  }, 
  {
    "city": "Zafarobod", 
    "lat": "40.1760", 
    "lng": "68.8468", 
    "country": "Tajikistan", 
    "iso2": "TJ", 
    "admin_name": "Sughd", 
    "capital": "minor", 
    "population": "", 
    "population_proper": ""
  }, 
  {
    "city": "Ghafurov", 
    "lat": "40.2157", 
    "lng": "69.7287", 
    "country": "Tajikistan", 
    "iso2": "TJ", 
    "admin_name": "Sughd", 
    "capital": "minor", 
    "population": "", 
    "population_proper": ""
  }, 
  {
    "city": "Panj", 
    "lat": "37.2363", 
    "lng": "69.0991", 
    "country": "Tajikistan", 
    "iso2": "TJ", 
    "admin_name": "Khatlon", 
    "capital": "minor", 
    "population": "", 
    "population_proper": ""
  }, 
  {
    "city": "Fayzobod", 
    "lat": "38.5473", 
    "lng": "69.3198", 
    "country": "Tajikistan", 
    "iso2": "TJ", 
    "admin_name": "Nohiyahoi Tobei Jumhurí", 
    "capital": "minor", 
    "population": "", 
    "population_proper": ""
  }, 
  {
    "city": "Obikiik", 
    "lat": "38.1603", 
    "lng": "68.6660", 
    "country": "Tajikistan", 
    "iso2": "TJ", 
    "admin_name": "Khatlon", 
    "capital": "minor", 
    "population": "", 
    "population_proper": ""
  }, 
  {
    "city": "Bŭston", 
    "lat": "40.5229", 
    "lng": "69.3331", 
    "country": "Tajikistan", 
    "iso2": "TJ", 
    "admin_name": "Sughd", 
    "capital": "minor", 
    "population": "", 
    "population_proper": ""
  }, 
  {
    "city": "Farkhor", 
    "lat": "37.4922", 
    "lng": "69.4036", 
    "country": "Tajikistan", 
    "iso2": "TJ", 
    "admin_name": "Khatlon", 
    "capital": "minor", 
    "population": "", 
    "population_proper": ""
  }, 
  {
    "city": "Moskva", 
    "lat": "37.6567", 
    "lng": "69.6292", 
    "country": "Tajikistan", 
    "iso2": "TJ", 
    "admin_name": "Khatlon", 
    "capital": "minor", 
    "population": "", 
    "population_proper": ""
  }, 
  {
    "city": "Danghara", 
    "lat": "38.0958", 
    "lng": "69.3400", 
    "country": "Tajikistan", 
    "iso2": "TJ", 
    "admin_name": "Khatlon", 
    "capital": "minor", 
    "population": "", 
    "population_proper": ""
  }, 
  {
    "city": "Shahrinav", 
    "lat": "38.5708", 
    "lng": "68.3350", 
    "country": "Tajikistan", 
    "iso2": "TJ", 
    "admin_name": "Nohiyahoi Tobei Jumhurí", 
    "capital": "minor", 
    "population": "", 
    "population_proper": ""
  }, 
  {
    "city": "Jilikŭl", 
    "lat": "37.4917", 
    "lng": "68.5311", 
    "country": "Tajikistan", 
    "iso2": "TJ", 
    "admin_name": "Khatlon", 
    "capital": "minor", 
    "population": "", 
    "population_proper": ""
  }, 
  {
    "city": "Qubodiyon", 
    "lat": "37.4097", 
    "lng": "68.1864", 
    "country": "Tajikistan", 
    "iso2": "TJ", 
    "admin_name": "Khatlon", 
    "capital": "minor", 
    "population": "", 
    "population_proper": ""
  }, 
  {
    "city": "Mŭ’minobod", 
    "lat": "38.1071", 
    "lng": "70.0321", 
    "country": "Tajikistan", 
    "iso2": "TJ", 
    "admin_name": "Khatlon", 
    "capital": "minor", 
    "population": "", 
    "population_proper": ""
  }, 
  {
    "city": "Ghonchí", 
    "lat": "39.9624", 
    "lng": "69.1297", 
    "country": "Tajikistan", 
    "iso2": "TJ", 
    "admin_name": "Sughd", 
    "capital": "minor", 
    "population": "", 
    "population_proper": ""
  }, 
  {
    "city": "Darband", 
    "lat": "38.8678", 
    "lng": "69.9664", 
    "country": "Tajikistan", 
    "iso2": "TJ", 
    "admin_name": "Nohiyahoi Tobei Jumhurí", 
    "capital": "minor", 
    "population": "", 
    "population_proper": ""
  }, 
  {
    "city": "Sovet", 
    "lat": "38.0467", 
    "lng": "69.5882", 
    "country": "Tajikistan", 
    "iso2": "TJ", 
    "admin_name": "Khatlon", 
    "capital": "minor", 
    "population": "", 
    "population_proper": ""
  }, 
  {
    "city": "Shahritus", 
    "lat": "37.2621", 
    "lng": "68.1385", 
    "country": "Tajikistan", 
    "iso2": "TJ", 
    "admin_name": "Khatlon", 
    "capital": "minor", 
    "population": "", 
    "population_proper": ""
  }, 
  {
    "city": "Shaydon", 
    "lat": "40.6699", 
    "lng": "70.3502", 
    "country": "Tajikistan", 
    "iso2": "TJ", 
    "admin_name": "Sughd", 
    "capital": "minor", 
    "population": "", 
    "population_proper": ""
  }, 
  {
    "city": "Bahorí", 
    "lat": "37.4020", 
    "lng": "67.9945", 
    "country": "Tajikistan", 
    "iso2": "TJ", 
    "admin_name": "Khatlon", 
    "capital": "minor", 
    "population": "", 
    "population_proper": ""
  }, 
  {
    "city": "Roghun", 
    "lat": "38.6933", 
    "lng": "69.7369", 
    "country": "Tajikistan", 
    "iso2": "TJ", 
    "admin_name": "Nohiyahoi Tobei Jumhurí", 
    "capital": "minor", 
    "population": "", 
    "population_proper": ""
  }, 
  {
    "city": "Shŭrobod", 
    "lat": "37.8414", 
    "lng": "70.0486", 
    "country": "Tajikistan", 
    "iso2": "TJ", 
    "admin_name": "Khatlon", 
    "capital": "minor", 
    "population": "", 
    "population_proper": ""
  }, 
  {
    "city": "Varzob", 
    "lat": "38.7728", 
    "lng": "68.8178", 
    "country": "Tajikistan", 
    "iso2": "TJ", 
    "admin_name": "Nohiyahoi Tobei Jumhurí", 
    "capital": "minor", 
    "population": "", 
    "population_proper": ""
  }, 
  {
    "city": "Khovaling", 
    "lat": "38.3419", 
    "lng": "69.9753", 
    "country": "Tajikistan", 
    "iso2": "TJ", 
    "admin_name": "Khatlon", 
    "capital": "minor", 
    "population": "", 
    "population_proper": ""
  }, 
  {
    "city": "Tajikobod", 
    "lat": "39.1241", 
    "lng": "70.8401", 
    "country": "Tajikistan", 
    "iso2": "TJ", 
    "admin_name": "Nohiyahoi Tobei Jumhurí", 
    "capital": "minor", 
    "population": "", 
    "population_proper": ""
  }, 
  {
    "city": "Rasht", 
    "lat": "39.0287", 
    "lng": "70.3745", 
    "country": "Tajikistan", 
    "iso2": "TJ", 
    "admin_name": "Nohiyahoi Tobei Jumhurí", 
    "capital": "minor", 
    "population": "", 
    "population_proper": ""
  }, 
  {
    "city": "Baljuvon", 
    "lat": "38.3084", 
    "lng": "69.6767", 
    "country": "Tajikistan", 
    "iso2": "TJ", 
    "admin_name": "Khatlon", 
    "capital": "minor", 
    "population": "", 
    "population_proper": ""
  }, 
  {
    "city": "Ayní", 
    "lat": "39.3941", 
    "lng": "68.5377", 
    "country": "Tajikistan", 
    "iso2": "TJ", 
    "admin_name": "Sughd", 
    "capital": "minor", 
    "population": "", 
    "population_proper": ""
  }, 
  {
    "city": "Jirghatol", 
    "lat": "39.2197", 
    "lng": "71.1916", 
    "country": "Tajikistan", 
    "iso2": "TJ", 
    "admin_name": "Nohiyahoi Tobei Jumhurí", 
    "capital": "minor", 
    "population": "", 
    "population_proper": ""
  }, 
  {
    "city": "Qalaikhumb", 
    "lat": "38.4537", 
    "lng": "70.7890", 
    "country": "Tajikistan", 
    "iso2": "TJ", 
    "admin_name": "Kŭhistoni Badakhshon", 
    "capital": "minor", 
    "population": "", 
    "population_proper": ""
  }, 
  {
    "city": "Vanj", 
    "lat": "38.3708", 
    "lng": "71.4547", 
    "country": "Tajikistan", 
    "iso2": "TJ", 
    "admin_name": "Kŭhistoni Badakhshon", 
    "capital": "minor", 
    "population": "", 
    "population_proper": ""
  }, 
  {
    "city": "Roshtqal’a", 
    "lat": "37.2583", 
    "lng": "71.8259", 
    "country": "Tajikistan", 
    "iso2": "TJ", 
    "admin_name": "Kŭhistoni Badakhshon", 
    "capital": "minor", 
    "population": "", 
    "population_proper": ""
  }, 
  {
    "city": "Mehron", 
    "lat": "39.4169", 
    "lng": "69.2868", 
    "country": "Tajikistan", 
    "iso2": "TJ", 
    "admin_name": "Sughd", 
    "capital": "minor", 
    "population": "", 
    "population_proper": ""
  }, 
  {
    "city": "Rŭshon", 
    "lat": "37.9449", 
    "lng": "71.5574", 
    "country": "Tajikistan", 
    "iso2": "TJ", 
    "admin_name": "Kŭhistoni Badakhshon", 
    "capital": "minor", 
    "population": "", 
    "population_proper": ""
  }, 
  {
    "city": "Tavildara", 
    "lat": "38.6953", 
    "lng": "70.4842", 
    "country": "Tajikistan", 
    "iso2": "TJ", 
    "admin_name": "Nohiyahoi Tobei Jumhurí", 
    "capital": "minor", 
    "population": "", 
    "population_proper": ""
  }, 
  {
    "city": "Murghob", 
    "lat": "38.1702", 
    "lng": "73.9667", 
    "country": "Tajikistan", 
    "iso2": "TJ", 
    "admin_name": "Kŭhistoni Badakhshon", 
    "capital": "minor", 
    "population": "", 
    "population_proper": ""
  }
]