[
  {
    "city": "Dili", 
    "lat": "-8.5586", 
    "lng": "125.5736", 
    "country": "Timor-Leste", 
    "iso2": "TL", 
    "admin_name": "Díli", 
    "capital": "primary", 
    "population": "222323", 
    "population_proper": "222323"
  }, 
  {
    "city": "Maliana", 
    "lat": "-8.9917", 
    "lng": "125.2197", 
    "country": "Timor-Leste", 
    "iso2": "TL", 
    "admin_name": "Bobonaro", 
    "capital": "admin", 
    "population": "15800", 
    "population_proper": "15800"
  }, 
  {
    "city": "Ainaro", 
    "lat": "-8.9833", 
    "lng": "125.5000", 
    "country": "Timor-Leste", 
    "iso2": "TL", 
    "admin_name": "Ainaro", 
    "capital": "admin", 
    "population": "15558", 
    "population_proper": "15558"
  }, 
  {
    "city": "Baucau", 
    "lat": "-8.4667", 
    "lng": "126.4500", 
    "country": "Timor-Leste", 
    "iso2": "TL", 
    "admin_name": "Baucau", 
    "capital": "admin", 
    "population": "14961", 
    "population_proper": "14961"
  }, 
  {
    "city": "Manatuto", 
    "lat": "-8.5167", 
    "lng": "126.0167", 
    "country": "Timor-Leste", 
    "iso2": "TL", 
    "admin_name": "Manatuto", 
    "capital": "admin", 
    "population": "9022", 
    "population_proper": "9022"
  }, 
  {
    "city": "Gleno", 
    "lat": "-8.7239", 
    "lng": "125.4361", 
    "country": "Timor-Leste", 
    "iso2": "TL", 
    "admin_name": "Ermera", 
    "capital": "admin", 
    "population": "8133", 
    "population_proper": "8133"
  }, 
  {
    "city": "Viqueque", 
    "lat": "-8.8500", 
    "lng": "126.3667", 
    "country": "Timor-Leste", 
    "iso2": "TL", 
    "admin_name": "Viqueque", 
    "capital": "admin", 
    "population": "6078", 
    "population_proper": "6078"
  }, 
  {
    "city": "Liquiçá", 
    "lat": "-8.5935", 
    "lng": "125.3273", 
    "country": "Timor-Leste", 
    "iso2": "TL", 
    "admin_name": "Liquiçá", 
    "capital": "admin", 
    "population": "5152", 
    "population_proper": "5152"
  }, 
  {
    "city": "Same", 
    "lat": "-9.0000", 
    "lng": "125.6500", 
    "country": "Timor-Leste", 
    "iso2": "TL", 
    "admin_name": "Manufahi", 
    "capital": "admin", 
    "population": "2100", 
    "population_proper": "2100"
  }, 
  {
    "city": "Hudilaran", 
    "lat": "-8.5566", 
    "lng": "125.5589", 
    "country": "Timor-Leste", 
    "iso2": "TL", 
    "admin_name": "Díli", 
    "capital": "", 
    "population": "", 
    "population_proper": ""
  }, 
  {
    "city": "Marabia", 
    "lat": "-8.5690", 
    "lng": "125.5876", 
    "country": "Timor-Leste", 
    "iso2": "TL", 
    "admin_name": "Díli", 
    "capital": "", 
    "population": "", 
    "population_proper": ""
  }, 
  {
    "city": "Beduku", 
    "lat": "-8.5836", 
    "lng": "125.5281", 
    "country": "Timor-Leste", 
    "iso2": "TL", 
    "admin_name": "Díli", 
    "capital": "", 
    "population": "", 
    "population_proper": ""
  }, 
  {
    "city": "Kampungbaru", 
    "lat": "-8.5561", 
    "lng": "125.5250", 
    "country": "Timor-Leste", 
    "iso2": "TL", 
    "admin_name": "Díli", 
    "capital": "", 
    "population": "", 
    "population_proper": ""
  }, 
  {
    "city": "Bedois", 
    "lat": "-8.5657", 
    "lng": "125.6247", 
    "country": "Timor-Leste", 
    "iso2": "TL", 
    "admin_name": "Díli", 
    "capital": "", 
    "population": "", 
    "population_proper": ""
  }, 
  {
    "city": "Lunukhun", 
    "lat": "-8.5653", 
    "lng": "125.6191", 
    "country": "Timor-Leste", 
    "iso2": "TL", 
    "admin_name": "Díli", 
    "capital": "", 
    "population": "", 
    "population_proper": ""
  }, 
  {
    "city": "Mota Ulun Timur", 
    "lat": "-8.5758", 
    "lng": "125.5931", 
    "country": "Timor-Leste", 
    "iso2": "TL", 
    "admin_name": "Díli", 
    "capital": "", 
    "population": "", 
    "population_proper": ""
  }, 
  {
    "city": "Bidau", 
    "lat": "-8.5667", 
    "lng": "125.6000", 
    "country": "Timor-Leste", 
    "iso2": "TL", 
    "admin_name": "Díli", 
    "capital": "", 
    "population": "", 
    "population_proper": ""
  }, 
  {
    "city": "Ailoklaran", 
    "lat": "-8.5650", 
    "lng": "125.6128", 
    "country": "Timor-Leste", 
    "iso2": "TL", 
    "admin_name": "Díli", 
    "capital": "", 
    "population": "", 
    "population_proper": ""
  }, 
  {
    "city": "Buburlau", 
    "lat": "-8.5708", 
    "lng": "125.6181", 
    "country": "Timor-Leste", 
    "iso2": "TL", 
    "admin_name": "Díli", 
    "capital": "", 
    "population": "", 
    "population_proper": ""
  }, 
  {
    "city": "Karomate", 
    "lat": "-8.5742", 
    "lng": "125.6175", 
    "country": "Timor-Leste", 
    "iso2": "TL", 
    "admin_name": "Díli", 
    "capital": "", 
    "population": "", 
    "population_proper": ""
  }, 
  {
    "city": "Mota Ulun", 
    "lat": "-8.5732", 
    "lng": "125.6152", 
    "country": "Timor-Leste", 
    "iso2": "TL", 
    "admin_name": "Díli", 
    "capital": "", 
    "population": "", 
    "population_proper": ""
  }, 
  {
    "city": "Bekosi Atas", 
    "lat": "-8.5650", 
    "lng": "125.6067", 
    "country": "Timor-Leste", 
    "iso2": "TL", 
    "admin_name": "Díli", 
    "capital": "", 
    "population": "", 
    "population_proper": ""
  }, 
  {
    "city": "Kulau", 
    "lat": "-8.5731", 
    "lng": "125.6060", 
    "country": "Timor-Leste", 
    "iso2": "TL", 
    "admin_name": "Díli", 
    "capital": "", 
    "population": "", 
    "population_proper": ""
  }, 
  {
    "city": "Redilaran", 
    "lat": "-8.5761", 
    "lng": "125.5831", 
    "country": "Timor-Leste", 
    "iso2": "TL", 
    "admin_name": "Díli", 
    "capital": "", 
    "population": "", 
    "population_proper": ""
  }, 
  {
    "city": "Lahane", 
    "lat": "-8.5833", 
    "lng": "125.5833", 
    "country": "Timor-Leste", 
    "iso2": "TL", 
    "admin_name": "Díli", 
    "capital": "", 
    "population": "", 
    "population_proper": ""
  }, 
  {
    "city": "Aidabahare", 
    "lat": "-8.5703", 
    "lng": "125.6284", 
    "country": "Timor-Leste", 
    "iso2": "TL", 
    "admin_name": "Díli", 
    "capital": "", 
    "population": "", 
    "population_proper": ""
  }, 
  {
    "city": "Aihanexun", 
    "lat": "-8.5842", 
    "lng": "125.5832", 
    "country": "Timor-Leste", 
    "iso2": "TL", 
    "admin_name": "Díli", 
    "capital": "", 
    "population": "", 
    "population_proper": ""
  }, 
  {
    "city": "Nahaek", 
    "lat": "-8.5911", 
    "lng": "125.5806", 
    "country": "Timor-Leste", 
    "iso2": "TL", 
    "admin_name": "Díli", 
    "capital": "", 
    "population": "", 
    "population_proper": ""
  }, 
  {
    "city": "Malikeo", 
    "lat": "-8.5863", 
    "lng": "125.6027", 
    "country": "Timor-Leste", 
    "iso2": "TL", 
    "admin_name": "Díli", 
    "capital": "", 
    "population": "", 
    "population_proper": ""
  }, 
  {
    "city": "Kitutu", 
    "lat": "-8.5895", 
    "lng": "125.6082", 
    "country": "Timor-Leste", 
    "iso2": "TL", 
    "admin_name": "Aileu", 
    "capital": "", 
    "population": "", 
    "population_proper": ""
  }, 
  {
    "city": "Aileu", 
    "lat": "-8.7281", 
    "lng": "125.5664", 
    "country": "Timor-Leste", 
    "iso2": "TL", 
    "admin_name": "Aileu", 
    "capital": "admin", 
    "population": "", 
    "population_proper": ""
  }, 
  {
    "city": "Pante Macassar", 
    "lat": "-9.2000", 
    "lng": "124.3833", 
    "country": "Timor-Leste", 
    "iso2": "TL", 
    "admin_name": "Oecussi-Ambeno", 
    "capital": "admin", 
    "population": "", 
    "population_proper": ""
  }, 
  {
    "city": "Suai", 
    "lat": "-9.3129", 
    "lng": "125.2565", 
    "country": "Timor-Leste", 
    "iso2": "TL", 
    "admin_name": "Cova Lima", 
    "capital": "admin", 
    "population": "", 
    "population_proper": ""
  }, 
  {
    "city": "Lospalos", 
    "lat": "-8.5167", 
    "lng": "127.0333", 
    "country": "Timor-Leste", 
    "iso2": "TL", 
    "admin_name": "Lautém", 
    "capital": "admin", 
    "population": "", 
    "population_proper": ""
  }, 
  {
    "city": "Uailabere", 
    "lat": "-8.4460", 
    "lng": "126.4766", 
    "country": "Timor-Leste", 
    "iso2": "TL", 
    "admin_name": "Baucau", 
    "capital": "", 
    "population": "", 
    "population_proper": ""
  }, 
  {
    "city": "Onosere", 
    "lat": "-8.4528", 
    "lng": "126.4733", 
    "country": "Timor-Leste", 
    "iso2": "TL", 
    "admin_name": "Baucau", 
    "capital": "", 
    "population": "", 
    "population_proper": ""
  }, 
  {
    "city": "Kasmutu", 
    "lat": "-8.4583", 
    "lng": "126.4698", 
    "country": "Timor-Leste", 
    "iso2": "TL", 
    "admin_name": "Baucau", 
    "capital": "", 
    "population": "", 
    "population_proper": ""
  }, 
  {
    "city": "Diwake", 
    "lat": "-8.4488", 
    "lng": "126.4615", 
    "country": "Timor-Leste", 
    "iso2": "TL", 
    "admin_name": "Baucau", 
    "capital": "", 
    "population": "", 
    "population_proper": ""
  }, 
  {
    "city": "Racolo", 
    "lat": "-8.4461", 
    "lng": "126.4646", 
    "country": "Timor-Leste", 
    "iso2": "TL", 
    "admin_name": "Baucau", 
    "capital": "", 
    "population": "", 
    "population_proper": ""
  }, 
  {
    "city": "Uatabo", 
    "lat": "-8.4416", 
    "lng": "126.4656", 
    "country": "Timor-Leste", 
    "iso2": "TL", 
    "admin_name": "Baucau", 
    "capital": "", 
    "population": "", 
    "population_proper": ""
  }, 
  {
    "city": "Ailelehu", 
    "lat": "-8.5525", 
    "lng": "125.6236", 
    "country": "Timor-Leste", 
    "iso2": "TL", 
    "admin_name": "Díli", 
    "capital": "", 
    "population": "", 
    "population_proper": ""
  }, 
  {
    "city": "Boile", 
    "lat": "-8.4626", 
    "lng": "126.4555", 
    "country": "Timor-Leste", 
    "iso2": "TL", 
    "admin_name": "Baucau", 
    "capital": "", 
    "population": "", 
    "population_proper": ""
  }, 
  {
    "city": "Makadai", 
    "lat": "-8.4612", 
    "lng": "126.4541", 
    "country": "Timor-Leste", 
    "iso2": "TL", 
    "admin_name": "Baucau", 
    "capital": "", 
    "population": "", 
    "population_proper": ""
  }, 
  {
    "city": "Mangero", 
    "lat": "-8.7392", 
    "lng": "125.4361", 
    "country": "Timor-Leste", 
    "iso2": "TL", 
    "admin_name": "Ermera", 
    "capital": "", 
    "population": "", 
    "population_proper": ""
  }, 
  {
    "city": "Sosoher", 
    "lat": "-8.7469", 
    "lng": "125.4411", 
    "country": "Timor-Leste", 
    "iso2": "TL", 
    "admin_name": "Ermera", 
    "capital": "", 
    "population": "", 
    "population_proper": ""
  }, 
  {
    "city": "Datawa", 
    "lat": "-8.4633", 
    "lng": "126.4654", 
    "country": "Timor-Leste", 
    "iso2": "TL", 
    "admin_name": "Baucau", 
    "capital": "", 
    "population": "", 
    "population_proper": ""
  }, 
  {
    "city": "Gombei", 
    "lat": "-8.7328", 
    "lng": "125.4342", 
    "country": "Timor-Leste", 
    "iso2": "TL", 
    "admin_name": "Ermera", 
    "capital": "", 
    "population": "", 
    "population_proper": ""
  }, 
  {
    "city": "Lutumutu", 
    "lat": "-8.4834", 
    "lng": "126.4552", 
    "country": "Timor-Leste", 
    "iso2": "TL", 
    "admin_name": "Baucau", 
    "capital": "", 
    "population": "", 
    "population_proper": ""
  }, 
  {
    "city": "Caiobilalei", 
    "lat": "-8.4648", 
    "lng": "126.4698", 
    "country": "Timor-Leste", 
    "iso2": "TL", 
    "admin_name": "Baucau", 
    "capital": "", 
    "population": "", 
    "population_proper": ""
  }, 
  {
    "city": "Uaicainaro", 
    "lat": "-8.4711", 
    "lng": "126.4775", 
    "country": "Timor-Leste", 
    "iso2": "TL", 
    "admin_name": "Baucau", 
    "capital": "", 
    "population": "", 
    "population_proper": ""
  }, 
  {
    "city": "Paschei", 
    "lat": "-8.7317", 
    "lng": "125.4272", 
    "country": "Timor-Leste", 
    "iso2": "TL", 
    "admin_name": "Ermera", 
    "capital": "", 
    "population": "", 
    "population_proper": ""
  }, 
  {
    "city": "Teolale", 
    "lat": "-8.4582", 
    "lng": "126.4560", 
    "country": "Timor-Leste", 
    "iso2": "TL", 
    "admin_name": "Baucau", 
    "capital": "", 
    "population": "", 
    "population_proper": ""
  }, 
  {
    "city": "Fatunaba", 
    "lat": "-8.5946", 
    "lng": "125.5792", 
    "country": "Timor-Leste", 
    "iso2": "TL", 
    "admin_name": "Díli", 
    "capital": "", 
    "population": "", 
    "population_proper": ""
  }, 
  {
    "city": "Tapoinea", 
    "lat": "-8.9247", 
    "lng": "125.3964", 
    "country": "Timor-Leste", 
    "iso2": "TL", 
    "admin_name": "Ermera", 
    "capital": "", 
    "population": "", 
    "population_proper": ""
  }, 
  {
    "city": "Raibuti", 
    "lat": "-8.9169", 
    "lng": "125.3964", 
    "country": "Timor-Leste", 
    "iso2": "TL", 
    "admin_name": "Ermera", 
    "capital": "", 
    "population": "", 
    "population_proper": ""
  }, 
  {
    "city": "Rokon", 
    "lat": "-8.9964", 
    "lng": "125.2142", 
    "country": "Timor-Leste", 
    "iso2": "TL", 
    "admin_name": "Bobonaro", 
    "capital": "", 
    "population": "", 
    "population_proper": ""
  }, 
  {
    "city": "Atubuti", 
    "lat": "-8.9308", 
    "lng": "125.4053", 
    "country": "Timor-Leste", 
    "iso2": "TL", 
    "admin_name": "Ermera", 
    "capital": "", 
    "population": "", 
    "population_proper": ""
  }, 
  {
    "city": "Paramin", 
    "lat": "-8.9264", 
    "lng": "125.4042", 
    "country": "Timor-Leste", 
    "iso2": "TL", 
    "admin_name": "Ermera", 
    "capital": "", 
    "population": "", 
    "population_proper": ""
  }, 
  {
    "city": "Laklo", 
    "lat": "-8.9261", 
    "lng": "125.4008", 
    "country": "Timor-Leste", 
    "iso2": "TL", 
    "admin_name": "Ermera", 
    "capital": "", 
    "population": "", 
    "population_proper": ""
  }, 
  {
    "city": "Ailisu", 
    "lat": "-8.9317", 
    "lng": "125.4028", 
    "country": "Timor-Leste", 
    "iso2": "TL", 
    "admin_name": "Ermera", 
    "capital": "", 
    "population": "", 
    "population_proper": ""
  }, 
  {
    "city": "Aliatu", 
    "lat": "-8.9267", 
    "lng": "125.4067", 
    "country": "Timor-Leste", 
    "iso2": "TL", 
    "admin_name": "Ermera", 
    "capital": "", 
    "population": "", 
    "population_proper": ""
  }, 
  {
    "city": "Urletepoho", 
    "lat": "-8.7400", 
    "lng": "125.4292", 
    "country": "Timor-Leste", 
    "iso2": "TL", 
    "admin_name": "Ermera", 
    "capital": "", 
    "population": "", 
    "population_proper": ""
  }, 
  {
    "city": "Urluli", 
    "lat": "-8.7378", 
    "lng": "125.4283", 
    "country": "Timor-Leste", 
    "iso2": "TL", 
    "admin_name": "Ermera", 
    "capital": "", 
    "population": "", 
    "population_proper": ""
  }, 
  {
    "city": "Oplegul", 
    "lat": "-8.9975", 
    "lng": "125.2194", 
    "country": "Timor-Leste", 
    "iso2": "TL", 
    "admin_name": "Bobonaro", 
    "capital": "", 
    "population": "", 
    "population_proper": ""
  }, 
  {
    "city": "Malitada", 
    "lat": "-8.9361", 
    "lng": "125.4056", 
    "country": "Timor-Leste", 
    "iso2": "TL", 
    "admin_name": "Ermera", 
    "capital": "", 
    "population": "", 
    "population_proper": ""
  }, 
  {
    "city": "Wabere", 
    "lat": "-8.5697", 
    "lng": "126.5747", 
    "country": "Timor-Leste", 
    "iso2": "TL", 
    "admin_name": "Baucau", 
    "capital": "", 
    "population": "", 
    "population_proper": ""
  }, 
  {
    "city": "Laklolema", 
    "lat": "-8.6239", 
    "lng": "125.3083", 
    "country": "Timor-Leste", 
    "iso2": "TL", 
    "admin_name": "Liquiçá", 
    "capital": "", 
    "population": "", 
    "population_proper": ""
  }, 
  {
    "city": "Kemalehohuru", 
    "lat": "-8.5908", 
    "lng": "125.3128", 
    "country": "Timor-Leste", 
    "iso2": "TL", 
    "admin_name": "Liquiçá", 
    "capital": "", 
    "population": "", 
    "population_proper": ""
  }, 
  {
    "city": "Kemalelara", 
    "lat": "-8.5994", 
    "lng": "125.3208", 
    "country": "Timor-Leste", 
    "iso2": "TL", 
    "admin_name": "Liquiçá", 
    "capital": "", 
    "population": "", 
    "population_proper": ""
  }, 
  {
    "city": "Ermera", 
    "lat": "-8.7522", 
    "lng": "125.3969", 
    "country": "Timor-Leste", 
    "iso2": "TL", 
    "admin_name": "Ermera", 
    "capital": "", 
    "population": "", 
    "population_proper": ""
  }, 
  {
    "city": "Loblala", 
    "lat": "-8.7522", 
    "lng": "125.3856", 
    "country": "Timor-Leste", 
    "iso2": "TL", 
    "admin_name": "Ermera", 
    "capital": "", 
    "population": "", 
    "population_proper": ""
  }, 
  {
    "city": "Renatu", 
    "lat": "-8.7306", 
    "lng": "125.4022", 
    "country": "Timor-Leste", 
    "iso2": "TL", 
    "admin_name": "Ermera", 
    "capital": "", 
    "population": "", 
    "population_proper": ""
  }, 
  {
    "city": "Lekese", 
    "lat": "-8.7319", 
    "lng": "125.3922", 
    "country": "Timor-Leste", 
    "iso2": "TL", 
    "admin_name": "Ermera", 
    "capital": "", 
    "population": "", 
    "population_proper": ""
  }, 
  {
    "city": "Poepung", 
    "lat": "-8.7564", 
    "lng": "125.3897", 
    "country": "Timor-Leste", 
    "iso2": "TL", 
    "admin_name": "Ermera", 
    "capital": "", 
    "population": "", 
    "population_proper": ""
  }, 
  {
    "city": "Atsabe", 
    "lat": "-8.9250", 
    "lng": "125.3981", 
    "country": "Timor-Leste", 
    "iso2": "TL", 
    "admin_name": "Ermera", 
    "capital": "", 
    "population": "", 
    "population_proper": ""
  }, 
  {
    "city": "Tidibesse", 
    "lat": "-8.7614", 
    "lng": "125.3894", 
    "country": "Timor-Leste", 
    "iso2": "TL", 
    "admin_name": "Ermera", 
    "capital": "", 
    "population": "", 
    "population_proper": ""
  }, 
  {
    "city": "Suileo", 
    "lat": "-8.7475", 
    "lng": "125.4272", 
    "country": "Timor-Leste", 
    "iso2": "TL", 
    "admin_name": "Ermera", 
    "capital": "", 
    "population": "", 
    "population_proper": ""
  }, 
  {
    "city": "Tlibugeo", 
    "lat": "-8.7389", 
    "lng": "125.4042", 
    "country": "Timor-Leste", 
    "iso2": "TL", 
    "admin_name": "Ermera", 
    "capital": "", 
    "population": "", 
    "population_proper": ""
  }, 
  {
    "city": "Hekar", 
    "lat": "-8.6217", 
    "lng": "125.3408", 
    "country": "Timor-Leste", 
    "iso2": "TL", 
    "admin_name": "Liquiçá", 
    "capital": "", 
    "population": "", 
    "population_proper": ""
  }, 
  {
    "city": "Nunutali", 
    "lat": "-8.7500", 
    "lng": "125.4372", 
    "country": "Timor-Leste", 
    "iso2": "TL", 
    "admin_name": "Ermera", 
    "capital": "", 
    "population": "", 
    "population_proper": ""
  }, 
  {
    "city": "Pocana", 
    "lat": "-8.7564", 
    "lng": "125.4386", 
    "country": "Timor-Leste", 
    "iso2": "TL", 
    "admin_name": "Ermera", 
    "capital": "", 
    "population": "", 
    "population_proper": ""
  }, 
  {
    "city": "Airai", 
    "lat": "-8.9267", 
    "lng": "125.4094", 
    "country": "Timor-Leste", 
    "iso2": "TL", 
    "admin_name": "Ermera", 
    "capital": "", 
    "population": "", 
    "population_proper": ""
  }, 
  {
    "city": "Atupae", 
    "lat": "-8.9297", 
    "lng": "125.4100", 
    "country": "Timor-Leste", 
    "iso2": "TL", 
    "admin_name": "Ermera", 
    "capital": "", 
    "population": "", 
    "population_proper": ""
  }, 
  {
    "city": "Leopa", 
    "lat": "-8.5917", 
    "lng": "125.3253", 
    "country": "Timor-Leste", 
    "iso2": "TL", 
    "admin_name": "Liquiçá", 
    "capital": "", 
    "population": "", 
    "population_proper": ""
  }, 
  {
    "city": "Dato", 
    "lat": "-8.5950", 
    "lng": "125.3278", 
    "country": "Timor-Leste", 
    "iso2": "TL", 
    "admin_name": "Liquiçá", 
    "capital": "", 
    "population": "", 
    "population_proper": ""
  }, 
  {
    "city": "Kotalara", 
    "lat": "-8.5975", 
    "lng": "125.3294", 
    "country": "Timor-Leste", 
    "iso2": "TL", 
    "admin_name": "Liquiçá", 
    "capital": "", 
    "population": "", 
    "population_proper": ""
  }, 
  {
    "city": "Samatrai", 
    "lat": "-8.7597", 
    "lng": "125.3950", 
    "country": "Timor-Leste", 
    "iso2": "TL", 
    "admin_name": "Ermera", 
    "capital": "", 
    "population": "", 
    "population_proper": ""
  }, 
  {
    "city": "Manisu", 
    "lat": "-8.7108", 
    "lng": "125.4308", 
    "country": "Timor-Leste", 
    "iso2": "TL", 
    "admin_name": "Ermera", 
    "capital": "", 
    "population": "", 
    "population_proper": ""
  }, 
  {
    "city": "Pisulete", 
    "lat": "-8.5875", 
    "lng": "125.3492", 
    "country": "Timor-Leste", 
    "iso2": "TL", 
    "admin_name": "Liquiçá", 
    "capital": "", 
    "population": "", 
    "population_proper": ""
  }, 
  {
    "city": "Nartutu", 
    "lat": "-8.5894", 
    "lng": "125.3436", 
    "country": "Timor-Leste", 
    "iso2": "TL", 
    "admin_name": "Liquiçá", 
    "capital": "", 
    "population": "", 
    "population_proper": ""
  }, 
  {
    "city": "Raebou", 
    "lat": "-8.8858", 
    "lng": "125.4125", 
    "country": "Timor-Leste", 
    "iso2": "TL", 
    "admin_name": "Ermera", 
    "capital": "", 
    "population": "", 
    "population_proper": ""
  }, 
  {
    "city": "Leubasa", 
    "lat": "-8.8925", 
    "lng": "125.4253", 
    "country": "Timor-Leste", 
    "iso2": "TL", 
    "admin_name": "Ermera", 
    "capital": "", 
    "population": "", 
    "population_proper": ""
  }, 
  {
    "city": "Atauro", 
    "lat": "-8.2667", 
    "lng": "125.6014", 
    "country": "Timor-Leste", 
    "iso2": "TL", 
    "admin_name": "Díli", 
    "capital": "", 
    "population": "", 
    "population_proper": ""
  }, 
  {
    "city": "Obrato 1", 
    "lat": "-8.4972", 
    "lng": "125.9944", 
    "country": "Timor-Leste", 
    "iso2": "TL", 
    "admin_name": "Manatuto", 
    "capital": "", 
    "population": "", 
    "population_proper": ""
  }, 
  {
    "city": "Aiteas", 
    "lat": "-8.5106", 
    "lng": "126.0158", 
    "country": "Timor-Leste", 
    "iso2": "TL", 
    "admin_name": "Manatuto", 
    "capital": "", 
    "population": "", 
    "population_proper": ""
  }, 
  {
    "city": "Sau", 
    "lat": "-8.5100", 
    "lng": "126.0111", 
    "country": "Timor-Leste", 
    "iso2": "TL", 
    "admin_name": "Manatuto", 
    "capital": "", 
    "population": "", 
    "population_proper": ""
  }, 
  {
    "city": "Obrato", 
    "lat": "-8.5042", 
    "lng": "125.9975", 
    "country": "Timor-Leste", 
    "iso2": "TL", 
    "admin_name": "Manatuto", 
    "capital": "", 
    "population": "", 
    "population_proper": ""
  }, 
  {
    "city": "Malarahu", 
    "lat": "-8.5217", 
    "lng": "125.9978", 
    "country": "Timor-Leste", 
    "iso2": "TL", 
    "admin_name": "Manatuto", 
    "capital": "", 
    "population": "", 
    "population_proper": ""
  }, 
  {
    "city": "Kirilelo", 
    "lat": "-8.6489", 
    "lng": "125.3339", 
    "country": "Timor-Leste", 
    "iso2": "TL", 
    "admin_name": "Liquiçá", 
    "capital": "", 
    "population": "", 
    "population_proper": ""
  }, 
  {
    "city": "Hatululi", 
    "lat": "-8.6436", 
    "lng": "125.3369", 
    "country": "Timor-Leste", 
    "iso2": "TL", 
    "admin_name": "Liquiçá", 
    "capital": "", 
    "population": "", 
    "population_proper": ""
  }
]