[
  {
    "city": "Kingstown", 
    "lat": "13.1667", 
    "lng": "-61.2333", 
    "country": "Saint Vincent And The Grenadines", 
    "iso2": "VC", 
    "admin_name": "Saint George", 
    "capital": "primary", 
    "population": "25000", 
    "population_proper": "25000"
  }, 
  {
    "city": "Port Elizabeth", 
    "lat": "13.0111", 
    "lng": "-61.2344", 
    "country": "Saint Vincent And The Grenadines", 
    "iso2": "VC", 
    "admin_name": "Grenadines", 
    "capital": "", 
    "population": "847", 
    "population_proper": "847"
  }, 
  {
    "city": "Greathead", 
    "lat": "13.1442", 
    "lng": "-61.2208", 
    "country": "Saint Vincent And The Grenadines", 
    "iso2": "VC", 
    "admin_name": "Saint George", 
    "capital": "", 
    "population": "", 
    "population_proper": ""
  }, 
  {
    "city": "Liberty Lodge", 
    "lat": "13.1658", 
    "lng": "-61.2317", 
    "country": "Saint Vincent And The Grenadines", 
    "iso2": "VC", 
    "admin_name": "Saint Andrew", 
    "capital": "", 
    "population": "", 
    "population_proper": ""
  }, 
  {
    "city": "Redemption", 
    "lat": "13.1644", 
    "lng": "-61.2294", 
    "country": "Saint Vincent And The Grenadines", 
    "iso2": "VC", 
    "admin_name": "Saint Andrew", 
    "capital": "", 
    "population": "", 
    "population_proper": ""
  }, 
  {
    "city": "Chauncey", 
    "lat": "13.1667", 
    "lng": "-61.2333", 
    "country": "Saint Vincent And The Grenadines", 
    "iso2": "VC", 
    "admin_name": "Saint Andrew", 
    "capital": "", 
    "population": "", 
    "population_proper": ""
  }, 
  {
    "city": "Questelles", 
    "lat": "13.1667", 
    "lng": "-61.2333", 
    "country": "Saint Vincent And The Grenadines", 
    "iso2": "VC", 
    "admin_name": "Saint Andrew", 
    "capital": "", 
    "population": "", 
    "population_proper": ""
  }, 
  {
    "city": "Camden Park", 
    "lat": "13.1667", 
    "lng": "-61.2333", 
    "country": "Saint Vincent And The Grenadines", 
    "iso2": "VC", 
    "admin_name": "Saint Andrew", 
    "capital": "", 
    "population": "", 
    "population_proper": ""
  }, 
  {
    "city": "Montrose", 
    "lat": "13.1667", 
    "lng": "-61.2333", 
    "country": "Saint Vincent And The Grenadines", 
    "iso2": "VC", 
    "admin_name": "Saint Andrew", 
    "capital": "", 
    "population": "", 
    "population_proper": ""
  }, 
  {
    "city": "Clare Valley", 
    "lat": "13.1667", 
    "lng": "-61.2500", 
    "country": "Saint Vincent And The Grenadines", 
    "iso2": "VC", 
    "admin_name": "Saint Andrew", 
    "capital": "", 
    "population": "", 
    "population_proper": ""
  }, 
  {
    "city": "Pembroke", 
    "lat": "13.1833", 
    "lng": "-61.2500", 
    "country": "Saint Vincent And The Grenadines", 
    "iso2": "VC", 
    "admin_name": "Saint Andrew", 
    "capital": "", 
    "population": "", 
    "population_proper": ""
  }, 
  {
    "city": "Edinboro", 
    "lat": "13.1575", 
    "lng": "-61.2444", 
    "country": "Saint Vincent And The Grenadines", 
    "iso2": "VC", 
    "admin_name": "Saint Andrew", 
    "capital": "", 
    "population": "", 
    "population_proper": ""
  }, 
  {
    "city": "Dubois", 
    "lat": "13.1833", 
    "lng": "-61.2333", 
    "country": "Saint Vincent And The Grenadines", 
    "iso2": "VC", 
    "admin_name": "Saint Andrew", 
    "capital": "", 
    "population": "", 
    "population_proper": ""
  }, 
  {
    "city": "Arnos Vale", 
    "lat": "13.1425", 
    "lng": "-61.2094", 
    "country": "Saint Vincent And The Grenadines", 
    "iso2": "VC", 
    "admin_name": "Saint George", 
    "capital": "", 
    "population": "", 
    "population_proper": ""
  }, 
  {
    "city": "Ribishi", 
    "lat": "13.1333", 
    "lng": "-61.1833", 
    "country": "Saint Vincent And The Grenadines", 
    "iso2": "VC", 
    "admin_name": "Saint George", 
    "capital": "", 
    "population": "", 
    "population_proper": ""
  }, 
  {
    "city": "Calliaqua", 
    "lat": "13.1167", 
    "lng": "-61.1833", 
    "country": "Saint Vincent And The Grenadines", 
    "iso2": "VC", 
    "admin_name": "Saint George", 
    "capital": "", 
    "population": "", 
    "population_proper": ""
  }, 
  {
    "city": "Belmont", 
    "lat": "13.1500", 
    "lng": "-61.1833", 
    "country": "Saint Vincent And The Grenadines", 
    "iso2": "VC", 
    "admin_name": "Saint George", 
    "capital": "", 
    "population": "", 
    "population_proper": ""
  }, 
  {
    "city": "Brighton Village", 
    "lat": "13.1333", 
    "lng": "-61.1667", 
    "country": "Saint Vincent And The Grenadines", 
    "iso2": "VC", 
    "admin_name": "Saint George", 
    "capital": "", 
    "population": "", 
    "population_proper": ""
  }, 
  {
    "city": "Mesopotamia", 
    "lat": "13.1667", 
    "lng": "-61.1667", 
    "country": "Saint Vincent And The Grenadines", 
    "iso2": "VC", 
    "admin_name": "Charlotte", 
    "capital": "", 
    "population": "", 
    "population_proper": ""
  }, 
  {
    "city": "Richland Park", 
    "lat": "13.2000", 
    "lng": "-61.1667", 
    "country": "Saint Vincent And The Grenadines", 
    "iso2": "VC", 
    "admin_name": "Charlotte", 
    "capital": "", 
    "population": "", 
    "population_proper": ""
  }, 
  {
    "city": "Greiggs", 
    "lat": "13.2000", 
    "lng": "-61.1500", 
    "country": "Saint Vincent And The Grenadines", 
    "iso2": "VC", 
    "admin_name": "Charlotte", 
    "capital": "", 
    "population": "", 
    "population_proper": ""
  }, 
  {
    "city": "Union", 
    "lat": "13.0000", 
    "lng": "-61.2333", 
    "country": "Saint Vincent And The Grenadines", 
    "iso2": "VC", 
    "admin_name": "Grenadines", 
    "capital": "", 
    "population": "", 
    "population_proper": ""
  }, 
  {
    "city": "Lovell Village", 
    "lat": "12.8833", 
    "lng": "-61.1833", 
    "country": "Saint Vincent And The Grenadines", 
    "iso2": "VC", 
    "admin_name": "Grenadines", 
    "capital": "", 
    "population": "", 
    "population_proper": ""
  }, 
  {
    "city": "Dovers", 
    "lat": "12.8833", 
    "lng": "-61.1833", 
    "country": "Saint Vincent And The Grenadines", 
    "iso2": "VC", 
    "admin_name": "Grenadines", 
    "capital": "", 
    "population": "", 
    "population_proper": ""
  }, 
  {
    "city": "Bednoe", 
    "lat": "12.9500", 
    "lng": "-61.2500", 
    "country": "Saint Vincent And The Grenadines", 
    "iso2": "VC", 
    "admin_name": "Grenadines", 
    "capital": "", 
    "population": "", 
    "population_proper": ""
  }, 
  {
    "city": "Cheltenham", 
    "lat": "12.8833", 
    "lng": "-61.1833", 
    "country": "Saint Vincent And The Grenadines", 
    "iso2": "VC", 
    "admin_name": "Grenadines", 
    "capital": "", 
    "population": "", 
    "population_proper": ""
  }, 
  {
    "city": "Layou", 
    "lat": "13.2033", 
    "lng": "-61.2686", 
    "country": "Saint Vincent And The Grenadines", 
    "iso2": "VC", 
    "admin_name": "Saint Patrick", 
    "capital": "", 
    "population": "", 
    "population_proper": ""
  }, 
  {
    "city": "Francois", 
    "lat": "13.2000", 
    "lng": "-61.2167", 
    "country": "Saint Vincent And The Grenadines", 
    "iso2": "VC", 
    "admin_name": "Saint Andrew", 
    "capital": "", 
    "population": "", 
    "population_proper": ""
  }, 
  {
    "city": "Vermont", 
    "lat": "13.2000", 
    "lng": "-61.2167", 
    "country": "Saint Vincent And The Grenadines", 
    "iso2": "VC", 
    "admin_name": "Saint Andrew", 
    "capital": "", 
    "population": "", 
    "population_proper": ""
  }, 
  {
    "city": "Barrouallie", 
    "lat": "13.2358", 
    "lng": "-61.2719", 
    "country": "Saint Vincent And The Grenadines", 
    "iso2": "VC", 
    "admin_name": "Saint Patrick", 
    "capital": "", 
    "population": "", 
    "population_proper": ""
  }, 
  {
    "city": "Sans Souci", 
    "lat": "13.2167", 
    "lng": "-61.1167", 
    "country": "Saint Vincent And The Grenadines", 
    "iso2": "VC", 
    "admin_name": "Charlotte", 
    "capital": "", 
    "population": "", 
    "population_proper": ""
  }, 
  {
    "city": "Friendly", 
    "lat": "13.2333", 
    "lng": "-61.1167", 
    "country": "Saint Vincent And The Grenadines", 
    "iso2": "VC", 
    "admin_name": "Charlotte", 
    "capital": "", 
    "population": "", 
    "population_proper": ""
  }, 
  {
    "city": "Colonarie", 
    "lat": "13.2333", 
    "lng": "-61.1167", 
    "country": "Saint Vincent And The Grenadines", 
    "iso2": "VC", 
    "admin_name": "Charlotte", 
    "capital": "", 
    "population": "", 
    "population_proper": ""
  }
]