[
  {
    "city": "Apia", 
    "lat": "-13.8333", 
    "lng": "-171.8333", 
    "country": "Samoa", 
    "iso2": "WS", 
    "admin_name": "Tuamasaga", 
    "capital": "primary", 
    "population": "37708", 
    "population_proper": "37708"
  }, 
  {
    "city": "Afega", 
    "lat": "-13.7973", 
    "lng": "-171.8531", 
    "country": "Samoa", 
    "iso2": "WS", 
    "admin_name": "Tuamasaga", 
    "capital": "admin", 
    "population": "", 
    "population_proper": ""
  }, 
  {
    "city": "Leulumoega", 
    "lat": "-13.8230", 
    "lng": "-171.9613", 
    "country": "Samoa", 
    "iso2": "WS", 
    "admin_name": "A‘ana", 
    "capital": "admin", 
    "population": "", 
    "population_proper": ""
  }, 
  {
    "city": "Mulifanua", 
    "lat": "-13.8318", 
    "lng": "-172.0360", 
    "country": "Samoa", 
    "iso2": "WS", 
    "admin_name": "Aiga-i-le-Tai", 
    "capital": "admin", 
    "population": "", 
    "population_proper": ""
  }, 
  {
    "city": "Lufilufi", 
    "lat": "-13.8745", 
    "lng": "-171.5986", 
    "country": "Samoa", 
    "iso2": "WS", 
    "admin_name": "Atua", 
    "capital": "admin", 
    "population": "", 
    "population_proper": ""
  }, 
  {
    "city": "Safotulafai", 
    "lat": "-13.6715", 
    "lng": "-172.1777", 
    "country": "Samoa", 
    "iso2": "WS", 
    "admin_name": "Fa‘asaleleaga", 
    "capital": "admin", 
    "population": "", 
    "population_proper": ""
  }, 
  {
    "city": "Samamea", 
    "lat": "-13.9338", 
    "lng": "-171.5312", 
    "country": "Samoa", 
    "iso2": "WS", 
    "admin_name": "Va‘a-o-Fonoti", 
    "capital": "admin", 
    "population": "", 
    "population_proper": ""
  }, 
  {
    "city": "Satupa‘itea", 
    "lat": "-13.7659", 
    "lng": "-172.3269", 
    "country": "Samoa", 
    "iso2": "WS", 
    "admin_name": "Satupa‘itea", 
    "capital": "admin", 
    "population": "", 
    "population_proper": ""
  }, 
  {
    "city": "Asau", 
    "lat": "-13.5196", 
    "lng": "-172.6378", 
    "country": "Samoa", 
    "iso2": "WS", 
    "admin_name": "Vaisigano", 
    "capital": "admin", 
    "population": "", 
    "population_proper": ""
  }, 
  {
    "city": "Safotu", 
    "lat": "-13.4513", 
    "lng": "-172.4018", 
    "country": "Samoa", 
    "iso2": "WS", 
    "admin_name": "Gagaifomauga", 
    "capital": "admin", 
    "population": "", 
    "population_proper": ""
  }, 
  {
    "city": "Vailoa", 
    "lat": "-13.7555", 
    "lng": "-172.3070", 
    "country": "Samoa", 
    "iso2": "WS", 
    "admin_name": "Palauli", 
    "capital": "admin", 
    "population": "", 
    "population_proper": ""
  }, 
  {
    "city": "Saleaula", 
    "lat": "-13.4489", 
    "lng": "-172.3352", 
    "country": "Samoa", 
    "iso2": "WS", 
    "admin_name": "Gaga‘emauga", 
    "capital": "admin", 
    "population": "", 
    "population_proper": ""
  }, 
  {
    "city": "Safune", 
    "lat": "-13.8050", 
    "lng": "-171.8127", 
    "country": "Samoa", 
    "iso2": "WS", 
    "admin_name": "", 
    "capital": "", 
    "population": "", 
    "population_proper": ""
  }, 
  {
    "city": "Ululoloa", 
    "lat": "-13.8568", 
    "lng": "-171.8105", 
    "country": "Samoa", 
    "iso2": "WS", 
    "admin_name": "", 
    "capital": "", 
    "population": "", 
    "population_proper": ""
  }, 
  {
    "city": "Vaitele", 
    "lat": "-13.8200", 
    "lng": "-171.7800", 
    "country": "Samoa", 
    "iso2": "WS", 
    "admin_name": "", 
    "capital": "", 
    "population": "", 
    "population_proper": ""
  }, 
  {
    "city": "Tapatapao", 
    "lat": "-13.8760", 
    "lng": "-171.8308", 
    "country": "Samoa", 
    "iso2": "WS", 
    "admin_name": "", 
    "capital": "", 
    "population": "", 
    "population_proper": ""
  }, 
  {
    "city": "Tanumapua", 
    "lat": "-13.8627", 
    "lng": "-171.8205", 
    "country": "Samoa", 
    "iso2": "WS", 
    "admin_name": "", 
    "capital": "", 
    "population": "", 
    "population_proper": ""
  }, 
  {
    "city": "Toamua", 
    "lat": "-13.8078", 
    "lng": "-171.8121", 
    "country": "Samoa", 
    "iso2": "WS", 
    "admin_name": "", 
    "capital": "", 
    "population": "", 
    "population_proper": ""
  }, 
  {
    "city": "Petesa-fou", 
    "lat": "-13.8332", 
    "lng": "-171.8183", 
    "country": "Samoa", 
    "iso2": "WS", 
    "admin_name": "", 
    "capital": "", 
    "population": "", 
    "population_proper": ""
  }, 
  {
    "city": "Vaitele-uta", 
    "lat": "-13.8319", 
    "lng": "-171.8102", 
    "country": "Samoa", 
    "iso2": "WS", 
    "admin_name": "", 
    "capital": "", 
    "population": "", 
    "population_proper": ""
  }, 
  {
    "city": "Vaiusu", 
    "lat": "-13.8268", 
    "lng": "-171.7933", 
    "country": "Samoa", 
    "iso2": "WS", 
    "admin_name": "", 
    "capital": "", 
    "population": "", 
    "population_proper": ""
  }, 
  {
    "city": "Saina", 
    "lat": "-13.8170", 
    "lng": "-171.8066", 
    "country": "Samoa", 
    "iso2": "WS", 
    "admin_name": "", 
    "capital": "", 
    "population": "", 
    "population_proper": ""
  }, 
  {
    "city": "Siusega", 
    "lat": "-13.8443", 
    "lng": "-171.8140", 
    "country": "Samoa", 
    "iso2": "WS", 
    "admin_name": "", 
    "capital": "", 
    "population": "", 
    "population_proper": ""
  }, 
  {
    "city": "Leaupuni", 
    "lat": "-13.8840", 
    "lng": "-171.8317", 
    "country": "Samoa", 
    "iso2": "WS", 
    "admin_name": "", 
    "capital": "", 
    "population": "", 
    "population_proper": ""
  }, 
  {
    "city": "Faleauniu", 
    "lat": "-13.8482", 
    "lng": "-171.8222", 
    "country": "Samoa", 
    "iso2": "WS", 
    "admin_name": "", 
    "capital": "", 
    "population": "", 
    "population_proper": ""
  }, 
  {
    "city": "Vaigaga", 
    "lat": "-13.8237", 
    "lng": "-171.7948", 
    "country": "Samoa", 
    "iso2": "WS", 
    "admin_name": "", 
    "capital": "", 
    "population": "", 
    "population_proper": ""
  }, 
  {
    "city": "Leauva‘a", 
    "lat": "-13.7977", 
    "lng": "-171.8735", 
    "country": "Samoa", 
    "iso2": "WS", 
    "admin_name": "", 
    "capital": "", 
    "population": "", 
    "population_proper": ""
  }, 
  {
    "city": "Tafa’igata", 
    "lat": "-13.8509", 
    "lng": "-171.8300", 
    "country": "Samoa", 
    "iso2": "WS", 
    "admin_name": "", 
    "capital": "", 
    "population": "", 
    "population_proper": ""
  }, 
  {
    "city": "Se’ese’e", 
    "lat": "-13.8547", 
    "lng": "-171.8071", 
    "country": "Samoa", 
    "iso2": "WS", 
    "admin_name": "", 
    "capital": "", 
    "population": "", 
    "population_proper": ""
  }, 
  {
    "city": "Talimatau", 
    "lat": "-13.8425", 
    "lng": "-171.7962", 
    "country": "Samoa", 
    "iso2": "WS", 
    "admin_name": "", 
    "capital": "", 
    "population": "", 
    "population_proper": ""
  }, 
  {
    "city": "Tuana‘i", 
    "lat": "-13.7996", 
    "lng": "-171.8616", 
    "country": "Samoa", 
    "iso2": "WS", 
    "admin_name": "", 
    "capital": "", 
    "population": "", 
    "population_proper": ""
  }, 
  {
    "city": "Pesega", 
    "lat": "-13.8374", 
    "lng": "-171.7841", 
    "country": "Samoa", 
    "iso2": "WS", 
    "admin_name": "", 
    "capital": "", 
    "population": "", 
    "population_proper": ""
  }, 
  {
    "city": "Vaitoloa", 
    "lat": "-13.8334", 
    "lng": "-171.7891", 
    "country": "Samoa", 
    "iso2": "WS", 
    "admin_name": "", 
    "capital": "", 
    "population": "", 
    "population_proper": ""
  }, 
  {
    "city": "Tulaele", 
    "lat": "-13.8378", 
    "lng": "-171.7901", 
    "country": "Samoa", 
    "iso2": "WS", 
    "admin_name": "", 
    "capital": "", 
    "population": "", 
    "population_proper": ""
  }, 
  {
    "city": "Lepea", 
    "lat": "-13.8358", 
    "lng": "-171.7900", 
    "country": "Samoa", 
    "iso2": "WS", 
    "admin_name": "", 
    "capital": "", 
    "population": "", 
    "population_proper": ""
  }, 
  {
    "city": "Vailoa", 
    "lat": "-13.8312", 
    "lng": "-171.7913", 
    "country": "Samoa", 
    "iso2": "WS", 
    "admin_name": "", 
    "capital": "", 
    "population": "", 
    "population_proper": ""
  }, 
  {
    "city": "Falemauga", 
    "lat": "-13.8810", 
    "lng": "-171.8403", 
    "country": "Samoa", 
    "iso2": "WS", 
    "admin_name": "", 
    "capital": "", 
    "population": "", 
    "population_proper": ""
  }, 
  {
    "city": "Tua‘efu", 
    "lat": "-13.8572", 
    "lng": "-171.7990", 
    "country": "Samoa", 
    "iso2": "WS", 
    "admin_name": "", 
    "capital": "", 
    "population": "", 
    "population_proper": ""
  }, 
  {
    "city": "Papase’ea", 
    "lat": "-13.8621", 
    "lng": "-171.8063", 
    "country": "Samoa", 
    "iso2": "WS", 
    "admin_name": "", 
    "capital": "", 
    "population": "", 
    "population_proper": ""
  }, 
  {
    "city": "Lotopa", 
    "lat": "-13.8500", 
    "lng": "-171.7833", 
    "country": "Samoa", 
    "iso2": "WS", 
    "admin_name": "", 
    "capital": "", 
    "population": "", 
    "population_proper": ""
  }, 
  {
    "city": "Moamoa", 
    "lat": "-13.8666", 
    "lng": "-171.7854", 
    "country": "Samoa", 
    "iso2": "WS", 
    "admin_name": "", 
    "capital": "", 
    "population": "", 
    "population_proper": ""
  }, 
  {
    "city": "Alafua", 
    "lat": "-13.8571", 
    "lng": "-171.7861", 
    "country": "Samoa", 
    "iso2": "WS", 
    "admin_name": "", 
    "capital": "", 
    "population": "", 
    "population_proper": ""
  }, 
  {
    "city": "Taumuafa", 
    "lat": "-13.8333", 
    "lng": "-171.7833", 
    "country": "Samoa", 
    "iso2": "WS", 
    "admin_name": "", 
    "capital": "", 
    "population": "", 
    "population_proper": ""
  }, 
  {
    "city": "Vaimoso", 
    "lat": "-13.8365", 
    "lng": "-171.7771", 
    "country": "Samoa", 
    "iso2": "WS", 
    "admin_name": "", 
    "capital": "", 
    "population": "", 
    "population_proper": ""
  }, 
  {
    "city": "Sinamoga", 
    "lat": "-13.8508", 
    "lng": "-171.7792", 
    "country": "Samoa", 
    "iso2": "WS", 
    "admin_name": "", 
    "capital": "", 
    "population": "", 
    "population_proper": ""
  }, 
  {
    "city": "Fasafasa", 
    "lat": "-13.9153", 
    "lng": "-171.8090", 
    "country": "Samoa", 
    "iso2": "WS", 
    "admin_name": "", 
    "capital": "", 
    "population": "", 
    "population_proper": ""
  }, 
  {
    "city": "Alamagoto", 
    "lat": "-13.8464", 
    "lng": "-171.7759", 
    "country": "Samoa", 
    "iso2": "WS", 
    "admin_name": "", 
    "capital": "", 
    "population": "", 
    "population_proper": ""
  }, 
  {
    "city": "Faleata", 
    "lat": "-13.8167", 
    "lng": "-171.7833", 
    "country": "Samoa", 
    "iso2": "WS", 
    "admin_name": "", 
    "capital": "", 
    "population": "", 
    "population_proper": ""
  }, 
  {
    "city": "Mulinu’u", 
    "lat": "-13.8175", 
    "lng": "-171.7779", 
    "country": "Samoa", 
    "iso2": "WS", 
    "admin_name": "", 
    "capital": "", 
    "population": "", 
    "population_proper": ""
  }, 
  {
    "city": "Puipa’a", 
    "lat": "-13.8032", 
    "lng": "-171.8185", 
    "country": "Samoa", 
    "iso2": "WS", 
    "admin_name": "", 
    "capital": "", 
    "population": "", 
    "population_proper": ""
  }, 
  {
    "city": "Vaifoa", 
    "lat": "-13.7984", 
    "lng": "-171.8421", 
    "country": "Samoa", 
    "iso2": "WS", 
    "admin_name": "", 
    "capital": "", 
    "population": "", 
    "population_proper": ""
  }, 
  {
    "city": "Malie", 
    "lat": "-13.8004", 
    "lng": "-171.8469", 
    "country": "Samoa", 
    "iso2": "WS", 
    "admin_name": "", 
    "capital": "", 
    "population": "", 
    "population_proper": ""
  }, 
  {
    "city": "Savalalo", 
    "lat": "-13.8301", 
    "lng": "-171.7725", 
    "country": "Samoa", 
    "iso2": "WS", 
    "admin_name": "", 
    "capital": "", 
    "population": "", 
    "population_proper": ""
  }, 
  {
    "city": "Matafele", 
    "lat": "-13.8296", 
    "lng": "-171.7680", 
    "country": "Samoa", 
    "iso2": "WS", 
    "admin_name": "", 
    "capital": "", 
    "population": "", 
    "population_proper": ""
  }, 
  {
    "city": "Sogi", 
    "lat": "-13.8284", 
    "lng": "-171.7737", 
    "country": "Samoa", 
    "iso2": "WS", 
    "admin_name": "", 
    "capital": "", 
    "population": "", 
    "population_proper": ""
  }, 
  {
    "city": "Tiapapata", 
    "lat": "-13.8893", 
    "lng": "-171.7716", 
    "country": "Samoa", 
    "iso2": "WS", 
    "admin_name": "", 
    "capital": "", 
    "population": "", 
    "population_proper": ""
  }, 
  {
    "city": "Nafanua", 
    "lat": "-13.8560", 
    "lng": "-171.7631", 
    "country": "Samoa", 
    "iso2": "WS", 
    "admin_name": "", 
    "capital": "", 
    "population": "", 
    "population_proper": ""
  }, 
  {
    "city": "Lalovaea", 
    "lat": "-13.8399", 
    "lng": "-171.7666", 
    "country": "Samoa", 
    "iso2": "WS", 
    "admin_name": "", 
    "capital": "", 
    "population": "", 
    "population_proper": ""
  }, 
  {
    "city": "Afiamalu", 
    "lat": "-13.9105", 
    "lng": "-171.7833", 
    "country": "Samoa", 
    "iso2": "WS", 
    "admin_name": "", 
    "capital": "", 
    "population": "", 
    "population_proper": ""
  }, 
  {
    "city": "Magiagi", 
    "lat": "-13.8512", 
    "lng": "-171.7492", 
    "country": "Samoa", 
    "iso2": "WS", 
    "admin_name": "", 
    "capital": "", 
    "population": "", 
    "population_proper": ""
  }, 
  {
    "city": "Vaivase-uta", 
    "lat": "-13.8564", 
    "lng": "-171.7449", 
    "country": "Samoa", 
    "iso2": "WS", 
    "admin_name": "", 
    "capital": "", 
    "population": "", 
    "population_proper": ""
  }, 
  {
    "city": "Vaoala", 
    "lat": "-13.8741", 
    "lng": "-171.7634", 
    "country": "Samoa", 
    "iso2": "WS", 
    "admin_name": "", 
    "capital": "", 
    "population": "", 
    "population_proper": ""
  }, 
  {
    "city": "Vaipuna", 
    "lat": "-13.8312", 
    "lng": "-171.7537", 
    "country": "Samoa", 
    "iso2": "WS", 
    "admin_name": "", 
    "capital": "", 
    "population": "", 
    "population_proper": ""
  }, 
  {
    "city": "Matafagatele", 
    "lat": "-13.8391", 
    "lng": "-171.7438", 
    "country": "Samoa", 
    "iso2": "WS", 
    "admin_name": "", 
    "capital": "", 
    "population": "", 
    "population_proper": ""
  }, 
  {
    "city": "Vaiala", 
    "lat": "-13.8288", 
    "lng": "-171.7540", 
    "country": "Samoa", 
    "iso2": "WS", 
    "admin_name": "", 
    "capital": "", 
    "population": "", 
    "population_proper": ""
  }, 
  {
    "city": "Lanafala", 
    "lat": "-13.9000", 
    "lng": "-171.7500", 
    "country": "Samoa", 
    "iso2": "WS", 
    "admin_name": "", 
    "capital": "", 
    "population": "", 
    "population_proper": ""
  }, 
  {
    "city": "Moto‘otua", 
    "lat": "-13.8456", 
    "lng": "-171.7629", 
    "country": "Samoa", 
    "iso2": "WS", 
    "admin_name": "", 
    "capital": "", 
    "population": "", 
    "population_proper": ""
  }, 
  {
    "city": "Moata‘a", 
    "lat": "-13.8362", 
    "lng": "-171.7439", 
    "country": "Samoa", 
    "iso2": "WS", 
    "admin_name": "", 
    "capital": "", 
    "population": "", 
    "population_proper": ""
  }, 
  {
    "city": "Leaoa", 
    "lat": "-13.8972", 
    "lng": "-171.7756", 
    "country": "Samoa", 
    "iso2": "WS", 
    "admin_name": "", 
    "capital": "", 
    "population": "", 
    "population_proper": ""
  }, 
  {
    "city": "Tanugamanono", 
    "lat": "-13.8510", 
    "lng": "-171.7592", 
    "country": "Samoa", 
    "iso2": "WS", 
    "admin_name": "", 
    "capital": "", 
    "population": "", 
    "population_proper": ""
  }, 
  {
    "city": "Letava", 
    "lat": "-13.8781", 
    "lng": "-171.7657", 
    "country": "Samoa", 
    "iso2": "WS", 
    "admin_name": "", 
    "capital": "", 
    "population": "", 
    "population_proper": ""
  }, 
  {
    "city": "Faatoia", 
    "lat": "-13.8418", 
    "lng": "-171.7531", 
    "country": "Samoa", 
    "iso2": "WS", 
    "admin_name": "", 
    "capital": "", 
    "population": "", 
    "population_proper": ""
  }, 
  {
    "city": "Leufisa", 
    "lat": "-13.8470", 
    "lng": "-171.7641", 
    "country": "Samoa", 
    "iso2": "WS", 
    "admin_name": "", 
    "capital": "", 
    "population": "", 
    "population_proper": ""
  }, 
  {
    "city": "Matāutu", 
    "lat": "-13.8274", 
    "lng": "-171.7567", 
    "country": "Samoa", 
    "iso2": "WS", 
    "admin_name": "", 
    "capital": "", 
    "population": "", 
    "population_proper": ""
  }, 
  {
    "city": "Malololelei", 
    "lat": "-13.9051", 
    "lng": "-171.7800", 
    "country": "Samoa", 
    "iso2": "WS", 
    "admin_name": "", 
    "capital": "", 
    "population": "", 
    "population_proper": ""
  }, 
  {
    "city": "Ahners", 
    "lat": "-13.8333", 
    "lng": "-171.7500", 
    "country": "Samoa", 
    "iso2": "WS", 
    "admin_name": "", 
    "capital": "", 
    "population": "", 
    "population_proper": ""
  }, 
  {
    "city": "Papaloloa", 
    "lat": "-13.8568", 
    "lng": "-171.7546", 
    "country": "Samoa", 
    "iso2": "WS", 
    "admin_name": "", 
    "capital": "", 
    "population": "", 
    "population_proper": ""
  }, 
  {
    "city": "Leone", 
    "lat": "-13.8352", 
    "lng": "-171.7577", 
    "country": "Samoa", 
    "iso2": "WS", 
    "admin_name": "", 
    "capital": "", 
    "population": "", 
    "population_proper": ""
  }, 
  {
    "city": "Avele", 
    "lat": "-13.8694", 
    "lng": "-171.7626", 
    "country": "Samoa", 
    "iso2": "WS", 
    "admin_name": "", 
    "capital": "", 
    "population": "", 
    "population_proper": ""
  }, 
  {
    "city": "Vailima", 
    "lat": "-13.8642", 
    "lng": "-171.7613", 
    "country": "Samoa", 
    "iso2": "WS", 
    "admin_name": "", 
    "capital": "", 
    "population": "", 
    "population_proper": ""
  }, 
  {
    "city": "Olosega", 
    "lat": "-13.8418", 
    "lng": "-171.8536", 
    "country": "Samoa", 
    "iso2": "WS", 
    "admin_name": "", 
    "capital": "", 
    "population": "", 
    "population_proper": ""
  }, 
  {
    "city": "Vaivase", 
    "lat": "-13.8452", 
    "lng": "-171.7467", 
    "country": "Samoa", 
    "iso2": "WS", 
    "admin_name": "", 
    "capital": "", 
    "population": "", 
    "population_proper": ""
  }, 
  {
    "city": "A’ele", 
    "lat": "-13.8252", 
    "lng": "-171.8270", 
    "country": "Samoa", 
    "iso2": "WS", 
    "admin_name": "", 
    "capital": "", 
    "population": "", 
    "population_proper": ""
  }, 
  {
    "city": "Papaoga", 
    "lat": "-13.9232", 
    "lng": "-171.8026", 
    "country": "Samoa", 
    "iso2": "WS", 
    "admin_name": "", 
    "capital": "", 
    "population": "", 
    "population_proper": ""
  }, 
  {
    "city": "Levi", 
    "lat": "-13.7977", 
    "lng": "-171.8828", 
    "country": "Samoa", 
    "iso2": "WS", 
    "admin_name": "", 
    "capital": "", 
    "population": "", 
    "population_proper": ""
  }, 
  {
    "city": "Poutoga", 
    "lat": "-13.8508", 
    "lng": "-171.8673", 
    "country": "Samoa", 
    "iso2": "WS", 
    "admin_name": "", 
    "capital": "", 
    "population": "", 
    "population_proper": ""
  }, 
  {
    "city": "Tiavi", 
    "lat": "-13.9253", 
    "lng": "-171.7815", 
    "country": "Samoa", 
    "iso2": "WS", 
    "admin_name": "", 
    "capital": "", 
    "population": "", 
    "population_proper": ""
  }, 
  {
    "city": "Fagali‘i", 
    "lat": "-13.8431", 
    "lng": "-171.7369", 
    "country": "Samoa", 
    "iso2": "WS", 
    "admin_name": "", 
    "capital": "", 
    "population": "", 
    "population_proper": ""
  }, 
  {
    "city": "Letogo", 
    "lat": "-13.8525", 
    "lng": "-171.7217", 
    "country": "Samoa", 
    "iso2": "WS", 
    "admin_name": "", 
    "capital": "", 
    "population": "", 
    "population_proper": ""
  }, 
  {
    "city": "Laulii", 
    "lat": "-13.8500", 
    "lng": "-171.6833", 
    "country": "Samoa", 
    "iso2": "WS", 
    "admin_name": "", 
    "capital": "", 
    "population": "", 
    "population_proper": ""
  }, 
  {
    "city": "Suga", 
    "lat": "-13.8491", 
    "lng": "-171.7220", 
    "country": "Samoa", 
    "iso2": "WS", 
    "admin_name": "", 
    "capital": "", 
    "population": "", 
    "population_proper": ""
  }, 
  {
    "city": "Maalauli", 
    "lat": "-13.8425", 
    "lng": "-171.7291", 
    "country": "Samoa", 
    "iso2": "WS", 
    "admin_name": "", 
    "capital": "", 
    "population": "", 
    "population_proper": ""
  }, 
  {
    "city": "Lara Lafa", 
    "lat": "-13.8500", 
    "lng": "-171.7333", 
    "country": "Samoa", 
    "iso2": "WS", 
    "admin_name": "", 
    "capital": "", 
    "population": "", 
    "population_proper": ""
  }, 
  {
    "city": "Vailele", 
    "lat": "-13.8457", 
    "lng": "-171.7232", 
    "country": "Samoa", 
    "iso2": "WS", 
    "admin_name": "", 
    "capital": "", 
    "population": "", 
    "population_proper": ""
  }, 
  {
    "city": "Nofoali‘i", 
    "lat": "-13.8217", 
    "lng": "-171.9587", 
    "country": "Samoa", 
    "iso2": "WS", 
    "admin_name": "", 
    "capital": "", 
    "population": "", 
    "population_proper": ""
  }, 
  {
    "city": "Vaiālua", 
    "lat": "-13.8185", 
    "lng": "-171.9556", 
    "country": "Samoa", 
    "iso2": "WS", 
    "admin_name": "", 
    "capital": "", 
    "population": "", 
    "population_proper": ""
  }, 
  {
    "city": "Faleu", 
    "lat": "-13.8589", 
    "lng": "-172.1062", 
    "country": "Samoa", 
    "iso2": "WS", 
    "admin_name": "", 
    "capital": "", 
    "population": "", 
    "population_proper": ""
  }, 
  {
    "city": "Fuailolo‘o", 
    "lat": "-13.8447", 
    "lng": "-172.0459", 
    "country": "Samoa", 
    "iso2": "WS", 
    "admin_name": "", 
    "capital": "", 
    "population": "", 
    "population_proper": ""
  }, 
  {
    "city": "Apolimatuai", 
    "lat": "-13.8202", 
    "lng": "-172.1510", 
    "country": "Samoa", 
    "iso2": "WS", 
    "admin_name": "", 
    "capital": "", 
    "population": "", 
    "population_proper": ""
  }, 
  {
    "city": "Pagai", 
    "lat": "-13.8474", 
    "lng": "-172.1037", 
    "country": "Samoa", 
    "iso2": "WS", 
    "admin_name": "", 
    "capital": "", 
    "population": "", 
    "population_proper": ""
  }
]