[
  {
    "city": "Mamoudzou", 
    "lat": "-12.7871", 
    "lng": "45.2750", 
    "country": "Mayotte", 
    "iso2": "YT", 
    "admin_name": "", 
    "capital": "primary", 
    "population": "32057", 
    "population_proper": "14141"
  }, 
  {
    "city": "Pamandzi", 
    "lat": "-12.7991", 
    "lng": "45.2745", 
    "country": "Mayotte", 
    "iso2": "YT", 
    "admin_name": "", 
    "capital": "", 
    "population": "", 
    "population_proper": ""
  }, 
  {
    "city": "Labattoir", 
    "lat": "-12.7880", 
    "lng": "45.2716", 
    "country": "Mayotte", 
    "iso2": "YT", 
    "admin_name": "", 
    "capital": "", 
    "population": "", 
    "population_proper": ""
  }, 
  {
    "city": "Foungoujou", 
    "lat": "-12.7865", 
    "lng": "45.2616", 
    "country": "Mayotte", 
    "iso2": "YT", 
    "admin_name": "", 
    "capital": "", 
    "population": "", 
    "population_proper": ""
  }, 
  {
    "city": "Mronyombéni", 
    "lat": "-12.7879", 
    "lng": "45.2644", 
    "country": "Mayotte", 
    "iso2": "YT", 
    "admin_name": "", 
    "capital": "", 
    "population": "", 
    "population_proper": ""
  }, 
  {
    "city": "La Convalescence", 
    "lat": "-12.7766", 
    "lng": "45.2227", 
    "country": "Mayotte", 
    "iso2": "YT", 
    "admin_name": "", 
    "capital": "", 
    "population": "", 
    "population_proper": ""
  }, 
  {
    "city": "Doujani", 
    "lat": "-12.7935", 
    "lng": "45.2134", 
    "country": "Mayotte", 
    "iso2": "YT", 
    "admin_name": "", 
    "capital": "", 
    "population": "", 
    "population_proper": ""
  }, 
  {
    "city": "Kwalé Légion", 
    "lat": "-12.7974", 
    "lng": "45.1881", 
    "country": "Mayotte", 
    "iso2": "YT", 
    "admin_name": "", 
    "capital": "", 
    "population": "", 
    "population_proper": ""
  }, 
  {
    "city": "Tsoundzou Un", 
    "lat": "-12.8063", 
    "lng": "45.2055", 
    "country": "Mayotte", 
    "iso2": "YT", 
    "admin_name": "", 
    "capital": "", 
    "population": "", 
    "population_proper": ""
  }, 
  {
    "city": "Passamaïnti", 
    "lat": "-12.8013", 
    "lng": "45.2106", 
    "country": "Mayotte", 
    "iso2": "YT", 
    "admin_name": "", 
    "capital": "", 
    "population": "", 
    "population_proper": ""
  }, 
  {
    "city": "Kwalé", 
    "lat": "-12.8051", 
    "lng": "45.1974", 
    "country": "Mayotte", 
    "iso2": "YT", 
    "admin_name": "", 
    "capital": "", 
    "population": "", 
    "population_proper": ""
  }, 
  {
    "city": "Kawéni", 
    "lat": "-12.7713", 
    "lng": "45.2213", 
    "country": "Mayotte", 
    "iso2": "YT", 
    "admin_name": "", 
    "capital": "", 
    "population": "", 
    "population_proper": ""
  }, 
  {
    "city": "Vahibé", 
    "lat": "-12.7902", 
    "lng": "45.1771", 
    "country": "Mayotte", 
    "iso2": "YT", 
    "admin_name": "", 
    "capital": "", 
    "population": "", 
    "population_proper": ""
  }, 
  {
    "city": "Tsoundzou Deux", 
    "lat": "-12.8155", 
    "lng": "45.1994", 
    "country": "Mayotte", 
    "iso2": "YT", 
    "admin_name": "", 
    "capital": "", 
    "population": "", 
    "population_proper": ""
  }, 
  {
    "city": "Angoro", 
    "lat": "-12.7500", 
    "lng": "45.2333", 
    "country": "Mayotte", 
    "iso2": "YT", 
    "admin_name": "", 
    "capital": "", 
    "population": "", 
    "population_proper": ""
  }, 
  {
    "city": "Majikavo Lamir", 
    "lat": "-12.7531", 
    "lng": "45.2311", 
    "country": "Mayotte", 
    "iso2": "YT", 
    "admin_name": "", 
    "capital": "", 
    "population": "", 
    "population_proper": ""
  }, 
  {
    "city": "La Palmeraie", 
    "lat": "-12.8192", 
    "lng": "45.1953", 
    "country": "Mayotte", 
    "iso2": "YT", 
    "admin_name": "", 
    "capital": "", 
    "population": "", 
    "population_proper": ""
  }, 
  {
    "city": "Longoni", 
    "lat": "-12.7343", 
    "lng": "45.1630", 
    "country": "Mayotte", 
    "iso2": "YT", 
    "admin_name": "", 
    "capital": "", 
    "population": "", 
    "population_proper": ""
  }, 
  {
    "city": "Majikavo Koropa", 
    "lat": "-12.7438", 
    "lng": "45.2185", 
    "country": "Mayotte", 
    "iso2": "YT", 
    "admin_name": "", 
    "capital": "", 
    "population": "", 
    "population_proper": ""
  }, 
  {
    "city": "Kangani", 
    "lat": "-12.7305", 
    "lng": "45.1871", 
    "country": "Mayotte", 
    "iso2": "YT", 
    "admin_name": "", 
    "capital": "", 
    "population": "", 
    "population_proper": ""
  }, 
  {
    "city": "Trévani", 
    "lat": "-12.7335", 
    "lng": "45.1990", 
    "country": "Mayotte", 
    "iso2": "YT", 
    "admin_name": "", 
    "capital": "", 
    "population": "", 
    "population_proper": ""
  }, 
  {
    "city": "Koungou", 
    "lat": "-12.7358", 
    "lng": "45.2073", 
    "country": "Mayotte", 
    "iso2": "YT", 
    "admin_name": "", 
    "capital": "", 
    "population": "", 
    "population_proper": ""
  }, 
  {
    "city": "Bandrajou", 
    "lat": "-12.7483", 
    "lng": "45.2205", 
    "country": "Mayotte", 
    "iso2": "YT", 
    "admin_name": "", 
    "capital": "", 
    "population": "", 
    "population_proper": ""
  }, 
  {
    "city": "Komojou", 
    "lat": "-12.8549", 
    "lng": "45.1004", 
    "country": "Mayotte", 
    "iso2": "YT", 
    "admin_name": "", 
    "capital": "", 
    "population": "", 
    "population_proper": ""
  }, 
  {
    "city": "Doujani", 
    "lat": "-12.8451", 
    "lng": "45.1086", 
    "country": "Mayotte", 
    "iso2": "YT", 
    "admin_name": "", 
    "capital": "", 
    "population": "", 
    "population_proper": ""
  }, 
  {
    "city": "Bandrani", 
    "lat": "-12.8473", 
    "lng": "45.1046", 
    "country": "Mayotte", 
    "iso2": "YT", 
    "admin_name": "", 
    "capital": "", 
    "population": "", 
    "population_proper": ""
  }, 
  {
    "city": "Sada", 
    "lat": "-12.8504", 
    "lng": "45.0995", 
    "country": "Mayotte", 
    "iso2": "YT", 
    "admin_name": "", 
    "capital": "", 
    "population": "", 
    "population_proper": ""
  }, 
  {
    "city": "Mangajou", 
    "lat": "-12.8440", 
    "lng": "45.1172", 
    "country": "Mayotte", 
    "iso2": "YT", 
    "admin_name": "", 
    "capital": "", 
    "population": "", 
    "population_proper": ""
  }, 
  {
    "city": "Mtsangachéhi", 
    "lat": "-12.8860", 
    "lng": "45.1312", 
    "country": "Mayotte", 
    "iso2": "YT", 
    "admin_name": "", 
    "capital": "", 
    "population": "", 
    "population_proper": ""
  }, 
  {
    "city": "Chiconi", 
    "lat": "-12.8359", 
    "lng": "45.1124", 
    "country": "Mayotte", 
    "iso2": "YT", 
    "admin_name": "", 
    "capital": "", 
    "population": "", 
    "population_proper": ""
  }, 
  {
    "city": "Kavani", 
    "lat": "-12.8310", 
    "lng": "45.1136", 
    "country": "Mayotte", 
    "iso2": "YT", 
    "admin_name": "", 
    "capital": "", 
    "population": "", 
    "population_proper": ""
  }, 
  {
    "city": "Sohoa", 
    "lat": "-12.8223", 
    "lng": "45.1055", 
    "country": "Mayotte", 
    "iso2": "YT", 
    "admin_name": "", 
    "capital": "", 
    "population": "", 
    "population_proper": ""
  }, 
  {
    "city": "Djivani", 
    "lat": "-12.8334", 
    "lng": "45.1233", 
    "country": "Mayotte", 
    "iso2": "YT", 
    "admin_name": "", 
    "capital": "", 
    "population": "", 
    "population_proper": ""
  }, 
  {
    "city": "Courtomel", 
    "lat": "-12.7915", 
    "lng": "45.1633", 
    "country": "Mayotte", 
    "iso2": "YT", 
    "admin_name": "", 
    "capital": "", 
    "population": "", 
    "population_proper": ""
  }, 
  {
    "city": "Bandamagi", 
    "lat": "-12.7667", 
    "lng": "45.1667", 
    "country": "Mayotte", 
    "iso2": "YT", 
    "admin_name": "", 
    "capital": "", 
    "population": "", 
    "population_proper": ""
  }, 
  {
    "city": "Kahani", 
    "lat": "-12.8238", 
    "lng": "45.1316", 
    "country": "Mayotte", 
    "iso2": "YT", 
    "admin_name": "", 
    "capital": "", 
    "population": "", 
    "population_proper": ""
  }, 
  {
    "city": "Ouangani", 
    "lat": "-12.8498", 
    "lng": "45.1384", 
    "country": "Mayotte", 
    "iso2": "YT", 
    "admin_name": "", 
    "capital": "", 
    "population": "", 
    "population_proper": ""
  }, 
  {
    "city": "Barakani", 
    "lat": "-12.8380", 
    "lng": "45.1312", 
    "country": "Mayotte", 
    "iso2": "YT", 
    "admin_name": "", 
    "capital": "", 
    "population": "", 
    "population_proper": ""
  }, 
  {
    "city": "Coconi", 
    "lat": "-12.8346", 
    "lng": "45.1369", 
    "country": "Mayotte", 
    "iso2": "YT", 
    "admin_name": "", 
    "capital": "", 
    "population": "", 
    "population_proper": ""
  }, 
  {
    "city": "Hamjago", 
    "lat": "-12.6891", 
    "lng": "45.0748", 
    "country": "Mayotte", 
    "iso2": "YT", 
    "admin_name": "", 
    "capital": "", 
    "population": "", 
    "population_proper": ""
  }, 
  {
    "city": "Mtsahara", 
    "lat": "-12.6815", 
    "lng": "45.0835", 
    "country": "Mayotte", 
    "iso2": "YT", 
    "admin_name": "", 
    "capital": "", 
    "population": "", 
    "population_proper": ""
  }, 
  {
    "city": "Mtsamboro", 
    "lat": "-12.6988", 
    "lng": "45.0691", 
    "country": "Mayotte", 
    "iso2": "YT", 
    "admin_name": "", 
    "capital": "", 
    "population": "", 
    "population_proper": ""
  }, 
  {
    "city": "Hanyoundrou", 
    "lat": "-12.9033", 
    "lng": "45.1009", 
    "country": "Mayotte", 
    "iso2": "YT", 
    "admin_name": "", 
    "capital": "", 
    "population": "", 
    "population_proper": ""
  }, 
  {
    "city": "Mouanatrindri", 
    "lat": "-12.8996", 
    "lng": "45.0979", 
    "country": "Mayotte", 
    "iso2": "YT", 
    "admin_name": "", 
    "capital": "", 
    "population": "", 
    "population_proper": ""
  }, 
  {
    "city": "Mzouazia", 
    "lat": "-12.9272", 
    "lng": "45.1034", 
    "country": "Mayotte", 
    "iso2": "YT", 
    "admin_name": "", 
    "capital": "", 
    "population": "", 
    "population_proper": ""
  }, 
  {
    "city": "Bambo Ouest", 
    "lat": "-12.9243", 
    "lng": "45.0899", 
    "country": "Mayotte", 
    "iso2": "YT", 
    "admin_name": "", 
    "capital": "", 
    "population": "", 
    "population_proper": ""
  }, 
  {
    "city": "Bouéni", 
    "lat": "-12.9051", 
    "lng": "45.0784", 
    "country": "Mayotte", 
    "iso2": "YT", 
    "admin_name": "", 
    "capital": "", 
    "population": "", 
    "population_proper": ""
  }, 
  {
    "city": "Mouanamanga", 
    "lat": "-12.9109", 
    "lng": "45.0808", 
    "country": "Mayotte", 
    "iso2": "YT", 
    "admin_name": "", 
    "capital": "", 
    "population": "", 
    "population_proper": ""
  }, 
  {
    "city": "Majiméouni", 
    "lat": "-12.9252", 
    "lng": "45.1072", 
    "country": "Mayotte", 
    "iso2": "YT", 
    "admin_name": "", 
    "capital": "", 
    "population": "", 
    "population_proper": ""
  }, 
  {
    "city": "Mitséni", 
    "lat": "-12.7386", 
    "lng": "45.1457", 
    "country": "Mayotte", 
    "iso2": "YT", 
    "admin_name": "", 
    "capital": "", 
    "population": "", 
    "population_proper": ""
  }, 
  {
    "city": "Mbouanasta", 
    "lat": "-12.9443", 
    "lng": "45.1020", 
    "country": "Mayotte", 
    "iso2": "YT", 
    "admin_name": "", 
    "capital": "", 
    "population": "", 
    "population_proper": ""
  }, 
  {
    "city": "M’Zioizie", 
    "lat": "-12.9333", 
    "lng": "45.1333", 
    "country": "Mayotte", 
    "iso2": "YT", 
    "admin_name": "", 
    "capital": "", 
    "population": "", 
    "population_proper": ""
  }, 
  {
    "city": "Mtsangadoua", 
    "lat": "-12.7111", 
    "lng": "45.0512", 
    "country": "Mayotte", 
    "iso2": "YT", 
    "admin_name": "", 
    "capital": "", 
    "population": "", 
    "population_proper": ""
  }, 
  {
    "city": "Acoua", 
    "lat": "-12.7246", 
    "lng": "45.0588", 
    "country": "Mayotte", 
    "iso2": "YT", 
    "admin_name": "", 
    "capital": "", 
    "population": "", 
    "population_proper": ""
  }, 
  {
    "city": "Handréma", 
    "lat": "-12.6814", 
    "lng": "45.1004", 
    "country": "Mayotte", 
    "iso2": "YT", 
    "admin_name": "", 
    "capital": "", 
    "population": "", 
    "population_proper": ""
  }, 
  {
    "city": "Dzoumonyé", 
    "lat": "-12.7208", 
    "lng": "45.1185", 
    "country": "Mayotte", 
    "iso2": "YT", 
    "admin_name": "", 
    "capital": "", 
    "population": "", 
    "population_proper": ""
  }, 
  {
    "city": "Bouyouni", 
    "lat": "-12.7346", 
    "lng": "45.1391", 
    "country": "Mayotte", 
    "iso2": "YT", 
    "admin_name": "", 
    "capital": "", 
    "population": "", 
    "population_proper": ""
  }, 
  {
    "city": "Bandraboua", 
    "lat": "-12.7041", 
    "lng": "45.1224", 
    "country": "Mayotte", 
    "iso2": "YT", 
    "admin_name": "", 
    "capital": "", 
    "population": "", 
    "population_proper": ""
  }, 
  {
    "city": "M’Tsahara", 
    "lat": "-12.6833", 
    "lng": "45.1167", 
    "country": "Mayotte", 
    "iso2": "YT", 
    "admin_name": "", 
    "capital": "", 
    "population": "", 
    "population_proper": ""
  }
]